{
"type": "FeatureCollection",
"name": "b-stop",
"crs": { "type": "name", "properties": { "name": "urn:ogc:def:crs:OGC:1.3:CRS84" } },
"features": [
{ "type": "Feature", "properties": { "osm_id": "634160529", "code": 5621, "fclass": "bus_stop", "name": "Nittambuwa Old Bus Stand" }, "geometry": { "type": "Point", "coordinates": [ 80.0954259, 7.139915 ] } },
{ "type": "Feature", "properties": { "osm_id": "1139318218", "code": 5622, "fclass": "bus_station", "name": "Veyangoda Bus Station" }, "geometry": { "type": "Point", "coordinates": [ 80.0577355, 7.1531545 ] } },
{ "type": "Feature", "properties": { "osm_id": "1140291200", "code": 5622, "fclass": "bus_station", "name": "Mirigama" }, "geometry": { "type": "Point", "coordinates": [ 80.127163, 7.2428859 ] } },
{ "type": "Feature", "properties": { "osm_id": "1400433846", "code": 5622, "fclass": "bus_station", "name": "Puttalam Bus Station" }, "geometry": { "type": "Point", "coordinates": [ 79.8333513, 8.0278817 ] } },
{ "type": "Feature", "properties": { "osm_id": "1480054176", "code": 5622, "fclass": "bus_station", "name": "Nattandiya" }, "geometry": { "type": "Point", "coordinates": [ 79.8644902, 7.4112619 ] } },
{ "type": "Feature", "properties": { "osm_id": "1807855778", "code": 5622, "fclass": "bus_station", "name": "Bus Stand Ganemulla" }, "geometry": { "type": "Point", "coordinates": [ 79.9611268, 7.0662794 ] } },
{ "type": "Feature", "properties": { "osm_id": "1848020284", "code": 5622, "fclass": "bus_station", "name": "Makandura" }, "geometry": { "type": "Point", "coordinates": [ 79.9768432, 7.3227673 ] } },
{ "type": "Feature", "properties": { "osm_id": "1855199663", "code": 5621, "fclass": "bus_stop", "name": "Polgahawela (Kurunegala)" }, "geometry": { "type": "Point", "coordinates": [ 80.3002242, 7.3355156 ] } },
{ "type": "Feature", "properties": { "osm_id": "1856812595", "code": 5622, "fclass": "bus_station", "name": "Alawwa Central Bus Stand" }, "geometry": { "type": "Point", "coordinates": [ 80.2374601, 7.2960675 ] } },
{ "type": "Feature", "properties": { "osm_id": "1887862837", "code": 5622, "fclass": "bus_station", "name": "Wennappuwa Depot" }, "geometry": { "type": "Point", "coordinates": [ 79.8451185, 7.3271251 ] } },
{ "type": "Feature", "properties": { "osm_id": "2142229459", "code": 5622, "fclass": "bus_station", "name": "Taladuwa" }, "geometry": { "type": "Point", "coordinates": [ 79.842081, 7.2036857 ] } },
{ "type": "Feature", "properties": { "osm_id": "2152832340", "code": 5622, "fclass": "bus_station", "name": "Killinochchi" }, "geometry": { "type": "Point", "coordinates": [ 80.4066967, 9.3833191 ] } },
{ "type": "Feature", "properties": { "osm_id": "2196976335", "code": 5622, "fclass": "bus_station", "name": "Negombo Bus Depot" }, "geometry": { "type": "Point", "coordinates": [ 79.8514419, 7.2216047 ] } },
{ "type": "Feature", "properties": { "osm_id": "2376247224", "code": 5621, "fclass": "bus_stop", "name": "Bus to Colombo" }, "geometry": { "type": "Point", "coordinates": [ 79.8475658, 7.2138189 ] } },
{ "type": "Feature", "properties": { "osm_id": "2376247225", "code": 5621, "fclass": "bus_stop", "name": "Bus to Colombo" }, "geometry": { "type": "Point", "coordinates": [ 79.8470269, 7.2215883 ] } },
{ "type": "Feature", "properties": { "osm_id": "2703675529", "code": 5621, "fclass": "bus_stop", "name": "Divulapitiya Bus Stand" }, "geometry": { "type": "Point", "coordinates": [ 80.0197251, 7.2251913 ] } },
{ "type": "Feature", "properties": { "osm_id": "2834985602", "code": 5621, "fclass": "bus_stop", "name": null }, "geometry": { "type": "Point", "coordinates": [ 80.5233688, 8.2051512 ] } },
{ "type": "Feature", "properties": { "osm_id": "2834994401", "code": 5621, "fclass": "bus_stop", "name": null }, "geometry": { "type": "Point", "coordinates": [ 80.4996176, 8.2745165 ] } },
{ "type": "Feature", "properties": { "osm_id": "2834994602", "code": 5621, "fclass": "bus_stop", "name": null }, "geometry": { "type": "Point", "coordinates": [ 80.4625779, 8.3248861 ] } },
{ "type": "Feature", "properties": { "osm_id": "2857487801", "code": 5622, "fclass": "bus_station", "name": "Katunayake Airport" }, "geometry": { "type": "Point", "coordinates": [ 79.8886332, 7.1751325 ] } },
{ "type": "Feature", "properties": { "osm_id": "3602218414", "code": 5621, "fclass": "bus_stop", "name": "Imbulgasdeniya" }, "geometry": { "type": "Point", "coordinates": [ 80.3187445, 7.3097616 ] } },
{ "type": "Feature", "properties": { "osm_id": "3602218415", "code": 5621, "fclass": "bus_stop", "name": "Imbulgasdeniya" }, "geometry": { "type": "Point", "coordinates": [ 80.3180094, 7.3100886 ] } },
{ "type": "Feature", "properties": { "osm_id": "3602267798", "code": 5621, "fclass": "bus_stop", "name": "Kongashandiya" }, "geometry": { "type": "Point", "coordinates": [ 80.3159611, 7.3131515 ] } },
{ "type": "Feature", "properties": { "osm_id": "3602286277", "code": 5621, "fclass": "bus_stop", "name": "Karandana" }, "geometry": { "type": "Point", "coordinates": [ 80.3154939, 7.3203364 ] } },
{ "type": "Feature", "properties": { "osm_id": "3602286278", "code": 5621, "fclass": "bus_stop", "name": "Karandana" }, "geometry": { "type": "Point", "coordinates": [ 80.3154025, 7.3222428 ] } },
{ "type": "Feature", "properties": { "osm_id": "3642953429", "code": 5621, "fclass": "bus_stop", "name": "Kulumaddu Junction" }, "geometry": { "type": "Point", "coordinates": [ 80.4643473, 8.7626392 ] } },
{ "type": "Feature", "properties": { "osm_id": "3655100685", "code": 5622, "fclass": "bus_station", "name": "Chilaw CTB Bus Stand" }, "geometry": { "type": "Point", "coordinates": [ 79.7961515, 7.5767494 ] } },
{ "type": "Feature", "properties": { "osm_id": "3658467143", "code": 5622, "fclass": "bus_station", "name": "Wennappuwa Bus Stand" }, "geometry": { "type": "Point", "coordinates": [ 79.8417382, 7.3423741 ] } },
{ "type": "Feature", "properties": { "osm_id": "3679751396", "code": 5622, "fclass": "bus_station", "name": "Madampe" }, "geometry": { "type": "Point", "coordinates": [ 79.8409839, 7.496852 ] } },
{ "type": "Feature", "properties": { "osm_id": "3683075821", "code": 5621, "fclass": "bus_stop", "name": null }, "geometry": { "type": "Point", "coordinates": [ 80.4265975, 9.1694467 ] } },
{ "type": "Feature", "properties": { "osm_id": "3683075999", "code": 5621, "fclass": "bus_stop", "name": null }, "geometry": { "type": "Point", "coordinates": [ 80.4519019, 9.1188282 ] } },
{ "type": "Feature", "properties": { "osm_id": "3683076721", "code": 5621, "fclass": "bus_stop", "name": null }, "geometry": { "type": "Point", "coordinates": [ 80.4385837, 9.14577 ] } },
{ "type": "Feature", "properties": { "osm_id": "3683078139", "code": 5621, "fclass": "bus_stop", "name": null }, "geometry": { "type": "Point", "coordinates": [ 80.441823, 9.1392874 ] } },
{ "type": "Feature", "properties": { "osm_id": "3683078479", "code": 5621, "fclass": "bus_stop", "name": null }, "geometry": { "type": "Point", "coordinates": [ 80.4650866, 9.0956099 ] } },
{ "type": "Feature", "properties": { "osm_id": "3683081873", "code": 5621, "fclass": "bus_stop", "name": null }, "geometry": { "type": "Point", "coordinates": [ 80.4745935, 9.0875133 ] } },
{ "type": "Feature", "properties": { "osm_id": "3683083476", "code": 5621, "fclass": "bus_stop", "name": null }, "geometry": { "type": "Point", "coordinates": [ 80.5057587, 9.0608609 ] } },
{ "type": "Feature", "properties": { "osm_id": "3683087474", "code": 5621, "fclass": "bus_stop", "name": null }, "geometry": { "type": "Point", "coordinates": [ 80.4966303, 9.0686721 ] } },
{ "type": "Feature", "properties": { "osm_id": "3683092814", "code": 5621, "fclass": "bus_stop", "name": null }, "geometry": { "type": "Point", "coordinates": [ 80.5112155, 9.0556278 ] } },
{ "type": "Feature", "properties": { "osm_id": "3683099389", "code": 5621, "fclass": "bus_stop", "name": null }, "geometry": { "type": "Point", "coordinates": [ 80.5223507, 9.0322582 ] } },
{ "type": "Feature", "properties": { "osm_id": "3685707438", "code": 5621, "fclass": "bus_stop", "name": "Senapura Bus Stop" }, "geometry": { "type": "Point", "coordinates": [ 80.4702318, 8.0926135 ] } },
{ "type": "Feature", "properties": { "osm_id": "3725711159", "code": 5621, "fclass": "bus_stop", "name": "Alawwa-Kurunegala" }, "geometry": { "type": "Point", "coordinates": [ 80.2408757, 7.2942445 ] } },
{ "type": "Feature", "properties": { "osm_id": "3725932175", "code": 5621, "fclass": "bus_stop", "name": null }, "geometry": { "type": "Point", "coordinates": [ 80.3022142, 7.3309213 ] } },
{ "type": "Feature", "properties": { "osm_id": "3725932177", "code": 5621, "fclass": "bus_stop", "name": "Oraliyadda" }, "geometry": { "type": "Point", "coordinates": [ 80.3075692, 7.3278679 ] } },
{ "type": "Feature", "properties": { "osm_id": "3725932179", "code": 5621, "fclass": "bus_stop", "name": null }, "geometry": { "type": "Point", "coordinates": [ 80.3094746, 7.3272957 ] } },
{ "type": "Feature", "properties": { "osm_id": "3725932181", "code": 5621, "fclass": "bus_stop", "name": "Puwakwatta" }, "geometry": { "type": "Point", "coordinates": [ 80.3122436, 7.3262997 ] } },
{ "type": "Feature", "properties": { "osm_id": "3725932182", "code": 5621, "fclass": "bus_stop", "name": "BOI" }, "geometry": { "type": "Point", "coordinates": [ 80.3133433, 7.3253375 ] } },
{ "type": "Feature", "properties": { "osm_id": "3725932184", "code": 5621, "fclass": "bus_stop", "name": "Serapis" }, "geometry": { "type": "Point", "coordinates": [ 80.3138269, 7.3239949 ] } },
{ "type": "Feature", "properties": { "osm_id": "3725932188", "code": 5621, "fclass": "bus_stop", "name": "Moragolla" }, "geometry": { "type": "Point", "coordinates": [ 80.315063, 7.3163287 ] } },
{ "type": "Feature", "properties": { "osm_id": "3725932189", "code": 5621, "fclass": "bus_stop", "name": null }, "geometry": { "type": "Point", "coordinates": [ 80.3197642, 7.30849 ] } },
{ "type": "Feature", "properties": { "osm_id": "3725932191", "code": 5621, "fclass": "bus_stop", "name": "Wattarama Temple" }, "geometry": { "type": "Point", "coordinates": [ 80.3208248, 7.3048512 ] } },
{ "type": "Feature", "properties": { "osm_id": "3725932192", "code": 5621, "fclass": "bus_stop", "name": "Keselwatugoda" }, "geometry": { "type": "Point", "coordinates": [ 80.3206809, 7.3008586 ] } },
{ "type": "Feature", "properties": { "osm_id": "3736934813", "code": 5621, "fclass": "bus_stop", "name": "Ayurwedha Bus stop" }, "geometry": { "type": "Point", "coordinates": [ 80.0369083, 7.0917137 ] } },
{ "type": "Feature", "properties": { "osm_id": "3737031473", "code": 5621, "fclass": "bus_stop", "name": "Weediyawatta" }, "geometry": { "type": "Point", "coordinates": [ 80.0388683, 7.0940174 ] } },
{ "type": "Feature", "properties": { "osm_id": "3737096145", "code": 5621, "fclass": "bus_stop", "name": "Lyceum" }, "geometry": { "type": "Point", "coordinates": [ 80.0431142, 7.104688 ] } },
{ "type": "Feature", "properties": { "osm_id": "3737096146", "code": 5621, "fclass": "bus_stop", "name": "Wisse Kanuwa" }, "geometry": { "type": "Point", "coordinates": [ 80.0452064, 7.1077801 ] } },
{ "type": "Feature", "properties": { "osm_id": "3737196301", "code": 5621, "fclass": "bus_stop", "name": "Bogamuwa" }, "geometry": { "type": "Point", "coordinates": [ 80.051196, 7.110688 ] } },
{ "type": "Feature", "properties": { "osm_id": "3867200959", "code": 5621, "fclass": "bus_stop", "name": "Katiyawa Yaya 04 Junction Bus Stop" }, "geometry": { "type": "Point", "coordinates": [ 80.4344249, 8.0988289 ] } },
{ "type": "Feature", "properties": { "osm_id": "3928191766", "code": 5621, "fclass": "bus_stop", "name": null }, "geometry": { "type": "Point", "coordinates": [ 80.4649389, 8.7512983 ] } },
{ "type": "Feature", "properties": { "osm_id": "3945194340", "code": 5621, "fclass": "bus_stop", "name": null }, "geometry": { "type": "Point", "coordinates": [ 80.4932656, 8.8251379 ] } },
{ "type": "Feature", "properties": { "osm_id": "4018998115", "code": 5621, "fclass": "bus_stop", "name": "Imbulgasdeniya Library" }, "geometry": { "type": "Point", "coordinates": [ 80.3169674, 7.3116492 ] } },
{ "type": "Feature", "properties": { "osm_id": "4034298346", "code": 5621, "fclass": "bus_stop", "name": null }, "geometry": { "type": "Point", "coordinates": [ 79.8474206, 7.2138166 ] } },
{ "type": "Feature", "properties": { "osm_id": "4034298347", "code": 5621, "fclass": "bus_stop", "name": null }, "geometry": { "type": "Point", "coordinates": [ 79.8485862, 7.2111661 ] } },
{ "type": "Feature", "properties": { "osm_id": "4034298348", "code": 5621, "fclass": "bus_stop", "name": null }, "geometry": { "type": "Point", "coordinates": [ 79.8506783, 7.206504 ] } },
{ "type": "Feature", "properties": { "osm_id": "4034298349", "code": 5621, "fclass": "bus_stop", "name": null }, "geometry": { "type": "Point", "coordinates": [ 79.8531138, 7.2012564 ] } },
{ "type": "Feature", "properties": { "osm_id": "4034298350", "code": 5621, "fclass": "bus_stop", "name": null }, "geometry": { "type": "Point", "coordinates": [ 79.8549816, 7.1972283 ] } },
{ "type": "Feature", "properties": { "osm_id": "4052681691", "code": 5621, "fclass": "bus_stop", "name": null }, "geometry": { "type": "Point", "coordinates": [ 79.9353066, 7.1043409 ] } },
{ "type": "Feature", "properties": { "osm_id": "4059273139", "code": 5622, "fclass": "bus_station", "name": "Bus Stand Galnewa" }, "geometry": { "type": "Point", "coordinates": [ 80.4800093, 8.0351321 ] } },
{ "type": "Feature", "properties": { "osm_id": "4077489785", "code": 5621, "fclass": "bus_stop", "name": "Sinnathampanai" }, "geometry": { "type": "Point", "coordinates": [ 80.3848711, 8.6372654 ] } },
{ "type": "Feature", "properties": { "osm_id": "4089614484", "code": 5622, "fclass": "bus_station", "name": "Thambuttegama Bus Station" }, "geometry": { "type": "Point", "coordinates": [ 80.2969409, 8.1561538 ] } },
{ "type": "Feature", "properties": { "osm_id": "4109585763", "code": 5621, "fclass": "bus_stop", "name": null }, "geometry": { "type": "Point", "coordinates": [ 80.3367227, 9.3634507 ] } },
{ "type": "Feature", "properties": { "osm_id": "4109606810", "code": 5621, "fclass": "bus_stop", "name": null }, "geometry": { "type": "Point", "coordinates": [ 80.3412641, 9.3645785 ] } },
{ "type": "Feature", "properties": { "osm_id": "4109685308", "code": 5621, "fclass": "bus_stop", "name": null }, "geometry": { "type": "Point", "coordinates": [ 80.3788384, 9.3835198 ] } },
{ "type": "Feature", "properties": { "osm_id": "4109810982", "code": 5622, "fclass": "bus_station", "name": "Paranthan" }, "geometry": { "type": "Point", "coordinates": [ 80.4073022, 9.4369804 ] } },
{ "type": "Feature", "properties": { "osm_id": "4207202199", "code": 5621, "fclass": "bus_stop", "name": "16kanuwa bus stop" }, "geometry": { "type": "Point", "coordinates": [ 80.2241688, 7.6626423 ] } },
{ "type": "Feature", "properties": { "osm_id": "4207214295", "code": 5621, "fclass": "bus_stop", "name": "kurunegala bus stop" }, "geometry": { "type": "Point", "coordinates": [ 80.2211229, 7.6553943 ] } },
{ "type": "Feature", "properties": { "osm_id": "4207248592", "code": 5621, "fclass": "bus_stop", "name": "werella bus stop" }, "geometry": { "type": "Point", "coordinates": [ 80.2262444, 7.6673021 ] } },
{ "type": "Feature", "properties": { "osm_id": "4207251391", "code": 5621, "fclass": "bus_stop", "name": "Anuradhapura bus stop" }, "geometry": { "type": "Point", "coordinates": [ 80.2210067, 7.6557982 ] } },
{ "type": "Feature", "properties": { "osm_id": "4210899294", "code": 5621, "fclass": "bus_stop", "name": "Nadesapillai Memorial Bus Halt" }, "geometry": { "type": "Point", "coordinates": [ 80.5125159, 8.7299734 ] } },
{ "type": "Feature", "properties": { "osm_id": "4267425403", "code": 5621, "fclass": "bus_stop", "name": "Puththukkulam Bus Halt" }, "geometry": { "type": "Point", "coordinates": [ 80.2581563, 8.7617879 ] } },
{ "type": "Feature", "properties": { "osm_id": "4273724303", "code": 5621, "fclass": "bus_stop", "name": "Dehiyagatha" }, "geometry": { "type": "Point", "coordinates": [ 79.8839992, 7.1078178 ] } },
{ "type": "Feature", "properties": { "osm_id": "4283875967", "code": 5621, "fclass": "bus_stop", "name": "Polgahawela (Colombo)" }, "geometry": { "type": "Point", "coordinates": [ 80.2997292, 7.3350975 ] } },
{ "type": "Feature", "properties": { "osm_id": "4284001519", "code": 5621, "fclass": "bus_stop", "name": "Dewalegama" }, "geometry": { "type": "Point", "coordinates": [ 80.322541, 7.284085 ] } },
{ "type": "Feature", "properties": { "osm_id": "4284001520", "code": 5621, "fclass": "bus_stop", "name": "Dewalegama" }, "geometry": { "type": "Point", "coordinates": [ 80.3219496, 7.2848817 ] } },
{ "type": "Feature", "properties": { "osm_id": "4284001521", "code": 5621, "fclass": "bus_stop", "name": null }, "geometry": { "type": "Point", "coordinates": [ 80.3248609, 7.2820156 ] } },
{ "type": "Feature", "properties": { "osm_id": "4284001522", "code": 5621, "fclass": "bus_stop", "name": "Edurapotha" }, "geometry": { "type": "Point", "coordinates": [ 80.3271611, 7.2655085 ] } },
{ "type": "Feature", "properties": { "osm_id": "4284001529", "code": 5621, "fclass": "bus_stop", "name": null }, "geometry": { "type": "Point", "coordinates": [ 80.3294276, 7.25738 ] } },
{ "type": "Feature", "properties": { "osm_id": "4350781696", "code": 5621, "fclass": "bus_stop", "name": "Unagahadeniya Bus Stop" }, "geometry": { "type": "Point", "coordinates": [ 80.1166333, 7.1198418 ] } },
{ "type": "Feature", "properties": { "osm_id": "4350790790", "code": 5621, "fclass": "bus_stop", "name": "Urapola Bus Stop" }, "geometry": { "type": "Point", "coordinates": [ 80.144978, 7.0961906 ] } },
{ "type": "Feature", "properties": { "osm_id": "4350798095", "code": 5621, "fclass": "bus_stop", "name": "Dikkanda junction bus stop" }, "geometry": { "type": "Point", "coordinates": [ 80.0932309, 7.0704715 ] } },
{ "type": "Feature", "properties": { "osm_id": "4350798790", "code": 5621, "fclass": "bus_stop", "name": "Walgammulla bus stop" }, "geometry": { "type": "Point", "coordinates": [ 80.121163, 7.07703 ] } },
{ "type": "Feature", "properties": { "osm_id": "4350819494", "code": 5621, "fclass": "bus_stop", "name": "Batagolla bus stop" }, "geometry": { "type": "Point", "coordinates": [ 80.0450635, 7.0761073 ] } },
{ "type": "Feature", "properties": { "osm_id": "4350839992", "code": 5621, "fclass": "bus_stop", "name": "Nelligahamula bus stop" }, "geometry": { "type": "Point", "coordinates": [ 80.0788362, 7.0843026 ] } },
{ "type": "Feature", "properties": { "osm_id": "4355127491", "code": 5621, "fclass": "bus_stop", "name": "Urapola Bus Stop" }, "geometry": { "type": "Point", "coordinates": [ 80.145078, 7.0976095 ] } },
{ "type": "Feature", "properties": { "osm_id": "4359585048", "code": 5622, "fclass": "bus_station", "name": "Anamaduwa bus station" }, "geometry": { "type": "Point", "coordinates": [ 80.0119288, 7.8789837 ] } },
{ "type": "Feature", "properties": { "osm_id": "4364619992", "code": 5621, "fclass": "bus_stop", "name": null }, "geometry": { "type": "Point", "coordinates": [ 80.4080725, 9.4084421 ] } },
{ "type": "Feature", "properties": { "osm_id": "4364640193", "code": 5621, "fclass": "bus_stop", "name": null }, "geometry": { "type": "Point", "coordinates": [ 80.4091406, 9.3446952 ] } },
{ "type": "Feature", "properties": { "osm_id": "4375663117", "code": 5621, "fclass": "bus_stop", "name": "Seeduwa Brandix Bus Stop" }, "geometry": { "type": "Point", "coordinates": [ 79.8751221, 7.1381575 ] } },
{ "type": "Feature", "properties": { "osm_id": "4389097632", "code": 5621, "fclass": "bus_stop", "name": null }, "geometry": { "type": "Point", "coordinates": [ 80.3146525, 8.6522846 ] } },
{ "type": "Feature", "properties": { "osm_id": "4389098759", "code": 5621, "fclass": "bus_stop", "name": null }, "geometry": { "type": "Point", "coordinates": [ 80.3160565, 8.6469609 ] } },
{ "type": "Feature", "properties": { "osm_id": "4389111752", "code": 5621, "fclass": "bus_stop", "name": null }, "geometry": { "type": "Point", "coordinates": [ 80.3246367, 8.6339842 ] } },
{ "type": "Feature", "properties": { "osm_id": "4389112843", "code": 5621, "fclass": "bus_stop", "name": null }, "geometry": { "type": "Point", "coordinates": [ 80.3263404, 8.6324876 ] } },
{ "type": "Feature", "properties": { "osm_id": "4389122969", "code": 5621, "fclass": "bus_stop", "name": null }, "geometry": { "type": "Point", "coordinates": [ 80.3455056, 8.6209326 ] } },
{ "type": "Feature", "properties": { "osm_id": "4389131705", "code": 5621, "fclass": "bus_stop", "name": null }, "geometry": { "type": "Point", "coordinates": [ 80.3656643, 8.6064819 ] } },
{ "type": "Feature", "properties": { "osm_id": "4389136214", "code": 5621, "fclass": "bus_stop", "name": null }, "geometry": { "type": "Point", "coordinates": [ 80.3723656, 8.6007669 ] } },
{ "type": "Feature", "properties": { "osm_id": "4402350585", "code": 5622, "fclass": "bus_station", "name": "Bulathkohupitiya" }, "geometry": { "type": "Point", "coordinates": [ 80.3356431, 7.1052627 ] } },
{ "type": "Feature", "properties": { "osm_id": "4429119090", "code": 5621, "fclass": "bus_stop", "name": null }, "geometry": { "type": "Point", "coordinates": [ 79.8522598, 7.2921396 ] } },
{ "type": "Feature", "properties": { "osm_id": "4451072593", "code": 5621, "fclass": "bus_stop", "name": null }, "geometry": { "type": "Point", "coordinates": [ 80.130625, 7.116147 ] } },
{ "type": "Feature", "properties": { "osm_id": "4451080197", "code": 5621, "fclass": "bus_stop", "name": null }, "geometry": { "type": "Point", "coordinates": [ 80.116788, 7.119778 ] } },
{ "type": "Feature", "properties": { "osm_id": "4477445794", "code": 5621, "fclass": "bus_stop", "name": null }, "geometry": { "type": "Point", "coordinates": [ 80.5108295, 8.3582407 ] } },
{ "type": "Feature", "properties": { "osm_id": "4547500889", "code": 5621, "fclass": "bus_stop", "name": null }, "geometry": { "type": "Point", "coordinates": [ 79.9812158, 7.1633741 ] } },
{ "type": "Feature", "properties": { "osm_id": "4615309189", "code": 5621, "fclass": "bus_stop", "name": null }, "geometry": { "type": "Point", "coordinates": [ 80.2422135, 7.588219 ] } },
{ "type": "Feature", "properties": { "osm_id": "4615309289", "code": 5621, "fclass": "bus_stop", "name": null }, "geometry": { "type": "Point", "coordinates": [ 80.2489716, 7.5884147 ] } },
{ "type": "Feature", "properties": { "osm_id": "4618953791", "code": 5621, "fclass": "bus_stop", "name": null }, "geometry": { "type": "Point", "coordinates": [ 80.2957919, 7.0793678 ] } },
{ "type": "Feature", "properties": { "osm_id": "4619057590", "code": 5621, "fclass": "bus_stop", "name": null }, "geometry": { "type": "Point", "coordinates": [ 80.2842789, 7.0707527 ] } },
{ "type": "Feature", "properties": { "osm_id": "4619057591", "code": 5621, "fclass": "bus_stop", "name": null }, "geometry": { "type": "Point", "coordinates": [ 80.3136617, 7.376284 ] } },
{ "type": "Feature", "properties": { "osm_id": "4645363183", "code": 5622, "fclass": "bus_station", "name": "Raddolugama Bus stand" }, "geometry": { "type": "Point", "coordinates": [ 79.900277, 7.138692 ] } },
{ "type": "Feature", "properties": { "osm_id": "4645406981", "code": 5621, "fclass": "bus_stop", "name": "Seeduwa junction bus halt" }, "geometry": { "type": "Point", "coordinates": [ 79.8769289, 7.1313464 ] } },
{ "type": "Feature", "properties": { "osm_id": "4689122184", "code": 5621, "fclass": "bus_stop", "name": "Rathupaswala" }, "geometry": { "type": "Point", "coordinates": [ 80.0167027, 7.0533692 ] } },
{ "type": "Feature", "properties": { "osm_id": "4690500351", "code": 5622, "fclass": "bus_station", "name": "Talawa" }, "geometry": { "type": "Point", "coordinates": [ 80.3506013, 8.2368827 ] } },
{ "type": "Feature", "properties": { "osm_id": "4705226989", "code": 5622, "fclass": "bus_station", "name": "Alawwa-Colombo" }, "geometry": { "type": "Point", "coordinates": [ 80.2409972, 7.2941317 ] } },
{ "type": "Feature", "properties": { "osm_id": "4739580226", "code": 5621, "fclass": "bus_stop", "name": null }, "geometry": { "type": "Point", "coordinates": [ 79.8485023, 7.2371575 ] } },
{ "type": "Feature", "properties": { "osm_id": "4799126255", "code": 5621, "fclass": "bus_stop", "name": "Bulnewa Junction" }, "geometry": { "type": "Point", "coordinates": [ 80.445198, 8.0443341 ] } },
{ "type": "Feature", "properties": { "osm_id": "4983917827", "code": 5621, "fclass": "bus_stop", "name": null }, "geometry": { "type": "Point", "coordinates": [ 80.016736, 7.0738406 ] } },
{ "type": "Feature", "properties": { "osm_id": "4983928823", "code": 5621, "fclass": "bus_stop", "name": null }, "geometry": { "type": "Point", "coordinates": [ 80.0158949, 7.0728698 ] } },
{ "type": "Feature", "properties": { "osm_id": "5004197051", "code": 5621, "fclass": "bus_stop", "name": "Kegalle" }, "geometry": { "type": "Point", "coordinates": [ 80.2998235, 7.3355004 ] } },
{ "type": "Feature", "properties": { "osm_id": "5052537923", "code": 5621, "fclass": "bus_stop", "name": null }, "geometry": { "type": "Point", "coordinates": [ 80.1220294, 7.1168935 ] } },
{ "type": "Feature", "properties": { "osm_id": "5052538321", "code": 5621, "fclass": "bus_stop", "name": null }, "geometry": { "type": "Point", "coordinates": [ 80.135907, 7.1125358 ] } },
{ "type": "Feature", "properties": { "osm_id": "5052550921", "code": 5622, "fclass": "bus_station", "name": null }, "geometry": { "type": "Point", "coordinates": [ 80.0949594, 7.1413975 ] } },
{ "type": "Feature", "properties": { "osm_id": "5052913836", "code": 5622, "fclass": "bus_station", "name": "Nikaweratiya Bus Station" }, "geometry": { "type": "Point", "coordinates": [ 80.114999, 7.7506053 ] } },
{ "type": "Feature", "properties": { "osm_id": "5112919321", "code": 5621, "fclass": "bus_stop", "name": null }, "geometry": { "type": "Point", "coordinates": [ 79.740651, 8.2120902 ] } },
{ "type": "Feature", "properties": { "osm_id": "5112919325", "code": 5621, "fclass": "bus_stop", "name": "Small Pickup Bus" }, "geometry": { "type": "Point", "coordinates": [ 79.7242558, 8.21346 ] } },
{ "type": "Feature", "properties": { "osm_id": "5157470267", "code": 5621, "fclass": "bus_stop", "name": "Marandagahamula" }, "geometry": { "type": "Point", "coordinates": [ 79.9886978, 7.2299026 ] } },
{ "type": "Feature", "properties": { "osm_id": "5245293241", "code": 5622, "fclass": "bus_station", "name": "Nochchiyagama Bus Station" }, "geometry": { "type": "Point", "coordinates": [ 80.2100739, 8.2638059 ] } },
{ "type": "Feature", "properties": { "osm_id": "5306039429", "code": 5622, "fclass": "bus_station", "name": "Galapitamada Bus" }, "geometry": { "type": "Point", "coordinates": [ 80.2348226, 7.1396338 ] } },
{ "type": "Feature", "properties": { "osm_id": "5385095922", "code": 5622, "fclass": "bus_station", "name": null }, "geometry": { "type": "Point", "coordinates": [ 79.9807113, 7.1933814 ] } },
{ "type": "Feature", "properties": { "osm_id": "5412519122", "code": 5621, "fclass": "bus_stop", "name": null }, "geometry": { "type": "Point", "coordinates": [ 79.847754, 7.222874 ] } },
{ "type": "Feature", "properties": { "osm_id": "5484296221", "code": 5621, "fclass": "bus_stop", "name": null }, "geometry": { "type": "Point", "coordinates": [ 79.8621532, 7.1785613 ] } },
{ "type": "Feature", "properties": { "osm_id": "5519616115", "code": 5622, "fclass": "bus_station", "name": "Bus Stand - Galnewa" }, "geometry": { "type": "Point", "coordinates": [ 80.4804663, 8.0343505 ] } },
{ "type": "Feature", "properties": { "osm_id": "5573801181", "code": 5621, "fclass": "bus_stop", "name": "Gonagaldeniya" }, "geometry": { "type": "Point", "coordinates": [ 80.1983513, 7.0762679 ] } },
{ "type": "Feature", "properties": { "osm_id": "5584394122", "code": 5621, "fclass": "bus_stop", "name": null }, "geometry": { "type": "Point", "coordinates": [ 80.44585, 9.1309647 ] } },
{ "type": "Feature", "properties": { "osm_id": "5587567222", "code": 5621, "fclass": "bus_stop", "name": null }, "geometry": { "type": "Point", "coordinates": [ 80.4085122, 9.3907918 ] } },
{ "type": "Feature", "properties": { "osm_id": "5628227521", "code": 5621, "fclass": "bus_stop", "name": null }, "geometry": { "type": "Point", "coordinates": [ 79.8209362, 9.0846591 ] } },
{ "type": "Feature", "properties": { "osm_id": "5637093824", "code": 5621, "fclass": "bus_stop", "name": null }, "geometry": { "type": "Point", "coordinates": [ 79.8863435, 7.1717503 ] } },
{ "type": "Feature", "properties": { "osm_id": "5773626755", "code": 5621, "fclass": "bus_stop", "name": null }, "geometry": { "type": "Point", "coordinates": [ 80.1381043, 9.2427063 ] } },
{ "type": "Feature", "properties": { "osm_id": "5773637255", "code": 5622, "fclass": "bus_station", "name": null }, "geometry": { "type": "Point", "coordinates": [ 80.1377803, 9.2423782 ] } },
{ "type": "Feature", "properties": { "osm_id": "5793321353", "code": 5621, "fclass": "bus_stop", "name": null }, "geometry": { "type": "Point", "coordinates": [ 79.8333209, 7.978309 ] } },
{ "type": "Feature", "properties": { "osm_id": "5800938653", "code": 5622, "fclass": "bus_station", "name": null }, "geometry": { "type": "Point", "coordinates": [ 80.1736533, 7.2044064 ] } },
{ "type": "Feature", "properties": { "osm_id": "5839388671", "code": 5621, "fclass": "bus_stop", "name": null }, "geometry": { "type": "Point", "coordinates": [ 80.3884006, 9.4270818 ] } },
{ "type": "Feature", "properties": { "osm_id": "5919730009", "code": 5621, "fclass": "bus_stop", "name": null }, "geometry": { "type": "Point", "coordinates": [ 80.0514902, 7.2263795 ] } },
{ "type": "Feature", "properties": { "osm_id": "5919730010", "code": 5621, "fclass": "bus_stop", "name": null }, "geometry": { "type": "Point", "coordinates": [ 80.0556692, 7.2186451 ] } },
{ "type": "Feature", "properties": { "osm_id": "5919730011", "code": 5621, "fclass": "bus_stop", "name": null }, "geometry": { "type": "Point", "coordinates": [ 80.0579324, 7.2157945 ] } },
{ "type": "Feature", "properties": { "osm_id": "6001734085", "code": 5621, "fclass": "bus_stop", "name": null }, "geometry": { "type": "Point", "coordinates": [ 80.1286215, 7.2455384 ] } },
{ "type": "Feature", "properties": { "osm_id": "6001739186", "code": 5621, "fclass": "bus_stop", "name": null }, "geometry": { "type": "Point", "coordinates": [ 80.1121075, 7.1859664 ] } },
{ "type": "Feature", "properties": { "osm_id": "6001739187", "code": 5621, "fclass": "bus_stop", "name": null }, "geometry": { "type": "Point", "coordinates": [ 80.1237795, 7.1676632 ] } },
{ "type": "Feature", "properties": { "osm_id": "6001739285", "code": 5621, "fclass": "bus_stop", "name": "Gal Amuna bus stop" }, "geometry": { "type": "Point", "coordinates": [ 80.1113869, 7.1994038 ] } },
{ "type": "Feature", "properties": { "osm_id": "6177040819", "code": 5621, "fclass": "bus_stop", "name": "Wadakada Temple" }, "geometry": { "type": "Point", "coordinates": [ 80.2768917, 7.4008397 ] } },
{ "type": "Feature", "properties": { "osm_id": "6236533268", "code": 5621, "fclass": "bus_stop", "name": "Atugoda" }, "geometry": { "type": "Point", "coordinates": [ 80.3289782, 7.1990127 ] } },
{ "type": "Feature", "properties": { "osm_id": "6263106780", "code": 5622, "fclass": "bus_station", "name": null }, "geometry": { "type": "Point", "coordinates": [ 80.1242521, 7.1684793 ] } },
{ "type": "Feature", "properties": { "osm_id": "6295845523", "code": 5621, "fclass": "bus_stop", "name": null }, "geometry": { "type": "Point", "coordinates": [ 79.7419044, 8.2138989 ] } },
{ "type": "Feature", "properties": { "osm_id": "6295845524", "code": 5621, "fclass": "bus_stop", "name": null }, "geometry": { "type": "Point", "coordinates": [ 79.7598852, 8.2314946 ] } },
{ "type": "Feature", "properties": { "osm_id": "6295845563", "code": 5622, "fclass": "bus_station", "name": "Kalpitiya Bus Terminal" }, "geometry": { "type": "Point", "coordinates": [ 79.7635843, 8.2404819 ] } },
{ "type": "Feature", "properties": { "osm_id": "6295847882", "code": 5621, "fclass": "bus_stop", "name": null }, "geometry": { "type": "Point", "coordinates": [ 79.7507974, 8.2225488 ] } },
{ "type": "Feature", "properties": { "osm_id": "6295850189", "code": 5621, "fclass": "bus_stop", "name": null }, "geometry": { "type": "Point", "coordinates": [ 79.7612926, 8.2327264 ] } },
{ "type": "Feature", "properties": { "osm_id": "6295850587", "code": 5621, "fclass": "bus_stop", "name": null }, "geometry": { "type": "Point", "coordinates": [ 79.7390903, 8.2058427 ] } },
{ "type": "Feature", "properties": { "osm_id": "6295850588", "code": 5621, "fclass": "bus_stop", "name": null }, "geometry": { "type": "Point", "coordinates": [ 79.7641222, 8.2351895 ] } },
{ "type": "Feature", "properties": { "osm_id": "6295850590", "code": 5621, "fclass": "bus_stop", "name": null }, "geometry": { "type": "Point", "coordinates": [ 79.7482727, 8.2201113 ] } },
{ "type": "Feature", "properties": { "osm_id": "6295850593", "code": 5621, "fclass": "bus_stop", "name": null }, "geometry": { "type": "Point", "coordinates": [ 79.7373174, 8.2027108 ] } },
{ "type": "Feature", "properties": { "osm_id": "6295851285", "code": 5621, "fclass": "bus_stop", "name": null }, "geometry": { "type": "Point", "coordinates": [ 79.7480851, 8.2200937 ] } },
{ "type": "Feature", "properties": { "osm_id": "6295851385", "code": 5621, "fclass": "bus_stop", "name": null }, "geometry": { "type": "Point", "coordinates": [ 79.7559381, 8.2280929 ] } },
{ "type": "Feature", "properties": { "osm_id": "6295851585", "code": 5621, "fclass": "bus_stop", "name": null }, "geometry": { "type": "Point", "coordinates": [ 79.7621482, 8.2334338 ] } },
{ "type": "Feature", "properties": { "osm_id": "6631154364", "code": 5622, "fclass": "bus_station", "name": "Melsiripura Bus Stand" }, "geometry": { "type": "Point", "coordinates": [ 80.5079513, 7.6409704 ] } },
{ "type": "Feature", "properties": { "osm_id": "6681324385", "code": 5621, "fclass": "bus_stop", "name": null }, "geometry": { "type": "Point", "coordinates": [ 80.4182747, 8.3561232 ] } },
{ "type": "Feature", "properties": { "osm_id": "6702565186", "code": 5621, "fclass": "bus_stop", "name": null }, "geometry": { "type": "Point", "coordinates": [ 80.3019217, 7.8295953 ] } },
{ "type": "Feature", "properties": { "osm_id": "6702565285", "code": 5621, "fclass": "bus_stop", "name": null }, "geometry": { "type": "Point", "coordinates": [ 80.1001931, 7.6057647 ] } },
{ "type": "Feature", "properties": { "osm_id": "6702565286", "code": 5621, "fclass": "bus_stop", "name": null }, "geometry": { "type": "Point", "coordinates": [ 80.396736, 7.8422165 ] } },
{ "type": "Feature", "properties": { "osm_id": "6702565287", "code": 5621, "fclass": "bus_stop", "name": null }, "geometry": { "type": "Point", "coordinates": [ 80.3969658, 7.8424995 ] } },
{ "type": "Feature", "properties": { "osm_id": "6703538185", "code": 5621, "fclass": "bus_stop", "name": null }, "geometry": { "type": "Point", "coordinates": [ 79.8320061, 7.9791343 ] } },
{ "type": "Feature", "properties": { "osm_id": "6862745591", "code": 5621, "fclass": "bus_stop", "name": null }, "geometry": { "type": "Point", "coordinates": [ 80.1923213, 8.2573375 ] } },
{ "type": "Feature", "properties": { "osm_id": "7042298258", "code": 5621, "fclass": "bus_stop", "name": null }, "geometry": { "type": "Point", "coordinates": [ 80.4409531, 9.4367969 ] } },
{ "type": "Feature", "properties": { "osm_id": "7042298259", "code": 5621, "fclass": "bus_stop", "name": null }, "geometry": { "type": "Point", "coordinates": [ 80.4401927, 9.4365866 ] } },
{ "type": "Feature", "properties": { "osm_id": "7042298260", "code": 5621, "fclass": "bus_stop", "name": null }, "geometry": { "type": "Point", "coordinates": [ 80.4351448, 9.4364953 ] } },
{ "type": "Feature", "properties": { "osm_id": "7042298261", "code": 5621, "fclass": "bus_stop", "name": null }, "geometry": { "type": "Point", "coordinates": [ 80.4342395, 9.4363828 ] } },
{ "type": "Feature", "properties": { "osm_id": "7042298262", "code": 5621, "fclass": "bus_stop", "name": null }, "geometry": { "type": "Point", "coordinates": [ 80.4311724, 9.4364966 ] } },
{ "type": "Feature", "properties": { "osm_id": "7042298263", "code": 5621, "fclass": "bus_stop", "name": null }, "geometry": { "type": "Point", "coordinates": [ 80.4299567, 9.4363908 ] } },
{ "type": "Feature", "properties": { "osm_id": "7042298264", "code": 5621, "fclass": "bus_stop", "name": null }, "geometry": { "type": "Point", "coordinates": [ 80.4279906, 9.4364807 ] } },
{ "type": "Feature", "properties": { "osm_id": "7042298265", "code": 5621, "fclass": "bus_stop", "name": null }, "geometry": { "type": "Point", "coordinates": [ 80.4267977, 9.4363537 ] } },
{ "type": "Feature", "properties": { "osm_id": "7042298266", "code": 5621, "fclass": "bus_stop", "name": null }, "geometry": { "type": "Point", "coordinates": [ 80.4233471, 9.4364635 ] } },
{ "type": "Feature", "properties": { "osm_id": "7042298267", "code": 5621, "fclass": "bus_stop", "name": null }, "geometry": { "type": "Point", "coordinates": [ 80.4217096, 9.4363392 ] } },
{ "type": "Feature", "properties": { "osm_id": "7042298268", "code": 5621, "fclass": "bus_stop", "name": null }, "geometry": { "type": "Point", "coordinates": [ 80.4191762, 9.4364252 ] } },
{ "type": "Feature", "properties": { "osm_id": "7042298269", "code": 5621, "fclass": "bus_stop", "name": null }, "geometry": { "type": "Point", "coordinates": [ 80.4184493, 9.436314 ] } },
{ "type": "Feature", "properties": { "osm_id": "7042298270", "code": 5621, "fclass": "bus_stop", "name": null }, "geometry": { "type": "Point", "coordinates": [ 80.4155351, 9.436408 ] } },
{ "type": "Feature", "properties": { "osm_id": "7042298271", "code": 5621, "fclass": "bus_stop", "name": null }, "geometry": { "type": "Point", "coordinates": [ 80.4145883, 9.4362942 ] } },
{ "type": "Feature", "properties": { "osm_id": "7042347619", "code": 5621, "fclass": "bus_stop", "name": null }, "geometry": { "type": "Point", "coordinates": [ 80.4086861, 9.4363822 ] } },
{ "type": "Feature", "properties": { "osm_id": "7043523461", "code": 5621, "fclass": "bus_stop", "name": null }, "geometry": { "type": "Point", "coordinates": [ 80.4551654, 9.4372256 ] } },
{ "type": "Feature", "properties": { "osm_id": "7043523462", "code": 5621, "fclass": "bus_stop", "name": null }, "geometry": { "type": "Point", "coordinates": [ 80.4518791, 9.4374663 ] } },
{ "type": "Feature", "properties": { "osm_id": "7043523463", "code": 5621, "fclass": "bus_stop", "name": null }, "geometry": { "type": "Point", "coordinates": [ 80.4505983, 9.4373301 ] } },
{ "type": "Feature", "properties": { "osm_id": "7043523464", "code": 5621, "fclass": "bus_stop", "name": null }, "geometry": { "type": "Point", "coordinates": [ 80.4484351, 9.4375338 ] } },
{ "type": "Feature", "properties": { "osm_id": "7056379585", "code": 5622, "fclass": "bus_station", "name": null }, "geometry": { "type": "Point", "coordinates": [ 80.0490194, 8.8351263 ] } },
{ "type": "Feature", "properties": { "osm_id": "7091125988", "code": 5621, "fclass": "bus_stop", "name": null }, "geometry": { "type": "Point", "coordinates": [ 80.3959968, 8.3392506 ] } },
{ "type": "Feature", "properties": { "osm_id": "7107707885", "code": 5621, "fclass": "bus_stop", "name": null }, "geometry": { "type": "Point", "coordinates": [ 79.8925771, 7.179044 ] } },
{ "type": "Feature", "properties": { "osm_id": "7235347285", "code": 5621, "fclass": "bus_stop", "name": null }, "geometry": { "type": "Point", "coordinates": [ 79.883052, 7.16856 ] } },
{ "type": "Feature", "properties": { "osm_id": "7270539285", "code": 5621, "fclass": "bus_stop", "name": null }, "geometry": { "type": "Point", "coordinates": [ 79.8827028, 7.1681015 ] } },
{ "type": "Feature", "properties": { "osm_id": "7278937381", "code": 5621, "fclass": "bus_stop", "name": null }, "geometry": { "type": "Point", "coordinates": [ 79.738756, 8.2051198 ] } },
{ "type": "Feature", "properties": { "osm_id": "7890165057", "code": 5621, "fclass": "bus_stop", "name": null }, "geometry": { "type": "Point", "coordinates": [ 80.4073054, 9.4642187 ] } },
{ "type": "Feature", "properties": { "osm_id": "7890165061", "code": 5621, "fclass": "bus_stop", "name": null }, "geometry": { "type": "Point", "coordinates": [ 80.4072099, 9.4654298 ] } },
{ "type": "Feature", "properties": { "osm_id": "7890165069", "code": 5621, "fclass": "bus_stop", "name": null }, "geometry": { "type": "Point", "coordinates": [ 80.4071747, 9.4738483 ] } },
{ "type": "Feature", "properties": { "osm_id": "7890165073", "code": 5621, "fclass": "bus_stop", "name": null }, "geometry": { "type": "Point", "coordinates": [ 80.4070526, 9.475101 ] } },
{ "type": "Feature", "properties": { "osm_id": "7890178289", "code": 5621, "fclass": "bus_stop", "name": null }, "geometry": { "type": "Point", "coordinates": [ 80.4065524, 9.5010773 ] } },
{ "type": "Feature", "properties": { "osm_id": "7890178302", "code": 5621, "fclass": "bus_stop", "name": null }, "geometry": { "type": "Point", "coordinates": [ 80.4063942, 9.5023563 ] } },
{ "type": "Feature", "properties": { "osm_id": "7890178307", "code": 5621, "fclass": "bus_stop", "name": null }, "geometry": { "type": "Point", "coordinates": [ 80.4061769, 9.5107276 ] } },
{ "type": "Feature", "properties": { "osm_id": "7890178319", "code": 5621, "fclass": "bus_stop", "name": null }, "geometry": { "type": "Point", "coordinates": [ 80.4060253, 9.5117262 ] } },
{ "type": "Feature", "properties": { "osm_id": "8018263789", "code": 5621, "fclass": "bus_stop", "name": null }, "geometry": { "type": "Point", "coordinates": [ 80.5365832, 8.1653156 ] } },
{ "type": "Feature", "properties": { "osm_id": "8018263791", "code": 5621, "fclass": "bus_stop", "name": null }, "geometry": { "type": "Point", "coordinates": [ 80.5370848, 8.1644394 ] } },
{ "type": "Feature", "properties": { "osm_id": "8018765602", "code": 5621, "fclass": "bus_stop", "name": null }, "geometry": { "type": "Point", "coordinates": [ 80.5232312, 8.2050207 ] } },
{ "type": "Feature", "properties": { "osm_id": "8018765606", "code": 5621, "fclass": "bus_stop", "name": null }, "geometry": { "type": "Point", "coordinates": [ 80.5234055, 8.2040942 ] } },
{ "type": "Feature", "properties": { "osm_id": "8021925688", "code": 5621, "fclass": "bus_stop", "name": null }, "geometry": { "type": "Point", "coordinates": [ 80.5226237, 8.2240602 ] } },
{ "type": "Feature", "properties": { "osm_id": "8021925692", "code": 5621, "fclass": "bus_stop", "name": null }, "geometry": { "type": "Point", "coordinates": [ 80.5227256, 8.2231881 ] } },
{ "type": "Feature", "properties": { "osm_id": "8024954619", "code": 5621, "fclass": "bus_stop", "name": null }, "geometry": { "type": "Point", "coordinates": [ 80.500305, 8.2756004 ] } },
{ "type": "Feature", "properties": { "osm_id": "8024954620", "code": 5621, "fclass": "bus_stop", "name": null }, "geometry": { "type": "Point", "coordinates": [ 80.5001762, 8.2748492 ] } },
{ "type": "Feature", "properties": { "osm_id": "8024954633", "code": 5621, "fclass": "bus_stop", "name": null }, "geometry": { "type": "Point", "coordinates": [ 80.5002849, 8.2734066 ] } },
{ "type": "Feature", "properties": { "osm_id": "8025595556", "code": 5621, "fclass": "bus_stop", "name": null }, "geometry": { "type": "Point", "coordinates": [ 80.5009527, 8.3122715 ] } },
{ "type": "Feature", "properties": { "osm_id": "8025595557", "code": 5621, "fclass": "bus_stop", "name": null }, "geometry": { "type": "Point", "coordinates": [ 80.5010667, 8.311539 ] } },
{ "type": "Feature", "properties": { "osm_id": "8025595562", "code": 5621, "fclass": "bus_stop", "name": null }, "geometry": { "type": "Point", "coordinates": [ 80.5007932, 8.3053577 ] } },
{ "type": "Feature", "properties": { "osm_id": "8025595564", "code": 5621, "fclass": "bus_stop", "name": null }, "geometry": { "type": "Point", "coordinates": [ 80.500883, 8.3043943 ] } },
{ "type": "Feature", "properties": { "osm_id": "8025595572", "code": 5621, "fclass": "bus_stop", "name": null }, "geometry": { "type": "Point", "coordinates": [ 80.500643, 8.2976502 ] } },
{ "type": "Feature", "properties": { "osm_id": "8025595573", "code": 5621, "fclass": "bus_stop", "name": null }, "geometry": { "type": "Point", "coordinates": [ 80.5007429, 8.2967849 ] } },
{ "type": "Feature", "properties": { "osm_id": "8025595578", "code": 5621, "fclass": "bus_stop", "name": null }, "geometry": { "type": "Point", "coordinates": [ 80.5005464, 8.2932562 ] } },
{ "type": "Feature", "properties": { "osm_id": "8025595579", "code": 5621, "fclass": "bus_stop", "name": null }, "geometry": { "type": "Point", "coordinates": [ 80.500659, 8.2923485 ] } },
{ "type": "Feature", "properties": { "osm_id": "8025595584", "code": 5621, "fclass": "bus_stop", "name": null }, "geometry": { "type": "Point", "coordinates": [ 80.5003513, 8.2829148 ] } },
{ "type": "Feature", "properties": { "osm_id": "8025599185", "code": 5621, "fclass": "bus_stop", "name": null }, "geometry": { "type": "Point", "coordinates": [ 80.5004344, 8.2819819 ] } },
{ "type": "Feature", "properties": { "osm_id": "8027717567", "code": 5621, "fclass": "bus_stop", "name": null }, "geometry": { "type": "Point", "coordinates": [ 80.5050136, 8.34313 ] } },
{ "type": "Feature", "properties": { "osm_id": "8027717569", "code": 5621, "fclass": "bus_stop", "name": null }, "geometry": { "type": "Point", "coordinates": [ 80.5046162, 8.3421565 ] } },
{ "type": "Feature", "properties": { "osm_id": "8027717580", "code": 5621, "fclass": "bus_stop", "name": null }, "geometry": { "type": "Point", "coordinates": [ 80.5021597, 8.3379524 ] } },
{ "type": "Feature", "properties": { "osm_id": "8027717582", "code": 5621, "fclass": "bus_stop", "name": null }, "geometry": { "type": "Point", "coordinates": [ 80.5019385, 8.3370355 ] } },
{ "type": "Feature", "properties": { "osm_id": "8027869188", "code": 5621, "fclass": "bus_stop", "name": null }, "geometry": { "type": "Point", "coordinates": [ 80.5010346, 8.3319599 ] } },
{ "type": "Feature", "properties": { "osm_id": "8027869190", "code": 5621, "fclass": "bus_stop", "name": null }, "geometry": { "type": "Point", "coordinates": [ 80.5011258, 8.3308838 ] } },
{ "type": "Feature", "properties": { "osm_id": "8027869284", "code": 5621, "fclass": "bus_stop", "name": null }, "geometry": { "type": "Point", "coordinates": [ 80.5009527, 8.3268684 ] } },
{ "type": "Feature", "properties": { "osm_id": "8027869287", "code": 5621, "fclass": "bus_stop", "name": null }, "geometry": { "type": "Point", "coordinates": [ 80.501056, 8.3259926 ] } },
{ "type": "Feature", "properties": { "osm_id": "8027869297", "code": 5621, "fclass": "bus_stop", "name": null }, "geometry": { "type": "Point", "coordinates": [ 80.5010842, 8.3210045 ] } },
{ "type": "Feature", "properties": { "osm_id": "8027869299", "code": 5621, "fclass": "bus_stop", "name": null }, "geometry": { "type": "Point", "coordinates": [ 80.5011848, 8.3197532 ] } },
{ "type": "Feature", "properties": { "osm_id": "8032417753", "code": 5621, "fclass": "bus_stop", "name": null }, "geometry": { "type": "Point", "coordinates": [ 80.5101661, 8.3550946 ] } },
{ "type": "Feature", "properties": { "osm_id": "8033154797", "code": 5621, "fclass": "bus_stop", "name": null }, "geometry": { "type": "Point", "coordinates": [ 80.5099086, 8.3699659 ] } },
{ "type": "Feature", "properties": { "osm_id": "8033154798", "code": 5621, "fclass": "bus_stop", "name": null }, "geometry": { "type": "Point", "coordinates": [ 80.5101219, 8.3690106 ] } },
{ "type": "Feature", "properties": { "osm_id": "8033154799", "code": 5621, "fclass": "bus_stop", "name": null }, "geometry": { "type": "Point", "coordinates": [ 80.51015, 8.3675139 ] } },
{ "type": "Feature", "properties": { "osm_id": "8033154800", "code": 5621, "fclass": "bus_stop", "name": null }, "geometry": { "type": "Point", "coordinates": [ 80.5103405, 8.3667484 ] } },
{ "type": "Feature", "properties": { "osm_id": "8033154810", "code": 5621, "fclass": "bus_stop", "name": null }, "geometry": { "type": "Point", "coordinates": [ 80.5127284, 8.3599997 ] } },
{ "type": "Feature", "properties": { "osm_id": "8033154811", "code": 5621, "fclass": "bus_stop", "name": null }, "geometry": { "type": "Point", "coordinates": [ 80.5113396, 8.3594335 ] } },
{ "type": "Feature", "properties": { "osm_id": "8035415173", "code": 5621, "fclass": "bus_stop", "name": null }, "geometry": { "type": "Point", "coordinates": [ 80.5055715, 8.3905762 ] } },
{ "type": "Feature", "properties": { "osm_id": "8035415175", "code": 5621, "fclass": "bus_stop", "name": null }, "geometry": { "type": "Point", "coordinates": [ 80.5061831, 8.3897576 ] } },
{ "type": "Feature", "properties": { "osm_id": "8035428294", "code": 5621, "fclass": "bus_stop", "name": null }, "geometry": { "type": "Point", "coordinates": [ 80.5086869, 8.3827562 ] } },
{ "type": "Feature", "properties": { "osm_id": "8035428295", "code": 5621, "fclass": "bus_stop", "name": null }, "geometry": { "type": "Point", "coordinates": [ 80.5081746, 8.38362 ] } },
{ "type": "Feature", "properties": { "osm_id": "8035428300", "code": 5621, "fclass": "bus_stop", "name": null }, "geometry": { "type": "Point", "coordinates": [ 80.5090973, 8.3778418 ] } },
{ "type": "Feature", "properties": { "osm_id": "8035428302", "code": 5621, "fclass": "bus_stop", "name": null }, "geometry": { "type": "Point", "coordinates": [ 80.5093239, 8.376787 ] } },
{ "type": "Feature", "properties": { "osm_id": "8037453914", "code": 5621, "fclass": "bus_stop", "name": null }, "geometry": { "type": "Point", "coordinates": [ 80.5028893, 8.4274965 ] } },
{ "type": "Feature", "properties": { "osm_id": "8037453921", "code": 5621, "fclass": "bus_stop", "name": null }, "geometry": { "type": "Point", "coordinates": [ 80.503293, 8.4266661 ] } },
{ "type": "Feature", "properties": { "osm_id": "8037453934", "code": 5621, "fclass": "bus_stop", "name": null }, "geometry": { "type": "Point", "coordinates": [ 80.5027471, 8.4177842 ] } },
{ "type": "Feature", "properties": { "osm_id": "8037453935", "code": 5621, "fclass": "bus_stop", "name": null }, "geometry": { "type": "Point", "coordinates": [ 80.5029081, 8.4167879 ] } },
{ "type": "Feature", "properties": { "osm_id": "8037453944", "code": 5621, "fclass": "bus_stop", "name": null }, "geometry": { "type": "Point", "coordinates": [ 80.5031911, 8.4092524 ] } },
{ "type": "Feature", "properties": { "osm_id": "8037453946", "code": 5621, "fclass": "bus_stop", "name": null }, "geometry": { "type": "Point", "coordinates": [ 80.5033815, 8.4082985 ] } },
{ "type": "Feature", "properties": { "osm_id": "8037453947", "code": 5621, "fclass": "bus_stop", "name": null }, "geometry": { "type": "Point", "coordinates": [ 80.5033708, 8.4059848 ] } },
{ "type": "Feature", "properties": { "osm_id": "8037453948", "code": 5621, "fclass": "bus_stop", "name": null }, "geometry": { "type": "Point", "coordinates": [ 80.5035451, 8.4045095 ] } },
{ "type": "Feature", "properties": { "osm_id": "8037453956", "code": 5621, "fclass": "bus_stop", "name": null }, "geometry": { "type": "Point", "coordinates": [ 80.5040172, 8.3936967 ] } },
{ "type": "Feature", "properties": { "osm_id": "8037453958", "code": 5621, "fclass": "bus_stop", "name": null }, "geometry": { "type": "Point", "coordinates": [ 80.504449, 8.3926539 ] } },
{ "type": "Feature", "properties": { "osm_id": "8039729143", "code": 5621, "fclass": "bus_stop", "name": null }, "geometry": { "type": "Point", "coordinates": [ 80.5080808, 8.4466459 ] } },
{ "type": "Feature", "properties": { "osm_id": "8039729151", "code": 5621, "fclass": "bus_stop", "name": null }, "geometry": { "type": "Point", "coordinates": [ 80.5068389, 8.4432287 ] } },
{ "type": "Feature", "properties": { "osm_id": "8039729158", "code": 5621, "fclass": "bus_stop", "name": null }, "geometry": { "type": "Point", "coordinates": [ 80.5051638, 8.4380351 ] } },
{ "type": "Feature", "properties": { "osm_id": "8039729159", "code": 5621, "fclass": "bus_stop", "name": null }, "geometry": { "type": "Point", "coordinates": [ 80.5050726, 8.4373625 ] } },
{ "type": "Feature", "properties": { "osm_id": "8042169925", "code": 5621, "fclass": "bus_stop", "name": null }, "geometry": { "type": "Point", "coordinates": [ 80.5111411, 8.4569624 ] } },
{ "type": "Feature", "properties": { "osm_id": "8042169945", "code": 5621, "fclass": "bus_stop", "name": null }, "geometry": { "type": "Point", "coordinates": [ 80.5108595, 8.4554952 ] } },
{ "type": "Feature", "properties": { "osm_id": "8042169964", "code": 5621, "fclass": "bus_stop", "name": null }, "geometry": { "type": "Point", "coordinates": [ 80.5081893, 8.4476037 ] } },
{ "type": "Feature", "properties": { "osm_id": "8044081921", "code": 5621, "fclass": "bus_stop", "name": null }, "geometry": { "type": "Point", "coordinates": [ 80.5124702, 8.4692644 ] } },
{ "type": "Feature", "properties": { "osm_id": "8044081923", "code": 5621, "fclass": "bus_stop", "name": null }, "geometry": { "type": "Point", "coordinates": [ 80.5126378, 8.467142 ] } },
{ "type": "Feature", "properties": { "osm_id": "8044211731", "code": 5621, "fclass": "bus_stop", "name": null }, "geometry": { "type": "Point", "coordinates": [ 80.5119444, 8.4948858 ] } },
{ "type": "Feature", "properties": { "osm_id": "8044211733", "code": 5621, "fclass": "bus_stop", "name": null }, "geometry": { "type": "Point", "coordinates": [ 80.5119954, 8.4937663 ] } },
{ "type": "Feature", "properties": { "osm_id": "8044211736", "code": 5621, "fclass": "bus_stop", "name": null }, "geometry": { "type": "Point", "coordinates": [ 80.511125, 8.4899091 ] } },
{ "type": "Feature", "properties": { "osm_id": "8044211738", "code": 5621, "fclass": "bus_stop", "name": null }, "geometry": { "type": "Point", "coordinates": [ 80.510952, 8.488726 ] } },
{ "type": "Feature", "properties": { "osm_id": "8044211741", "code": 5621, "fclass": "bus_stop", "name": null }, "geometry": { "type": "Point", "coordinates": [ 80.5102412, 8.4860944 ] } },
{ "type": "Feature", "properties": { "osm_id": "8048254534", "code": 5621, "fclass": "bus_stop", "name": null }, "geometry": { "type": "Point", "coordinates": [ 80.5020994, 8.5193132 ] } },
{ "type": "Feature", "properties": { "osm_id": "8048254535", "code": 5621, "fclass": "bus_stop", "name": null }, "geometry": { "type": "Point", "coordinates": [ 80.5024333, 8.5187501 ] } },
{ "type": "Feature", "properties": { "osm_id": "8048254577", "code": 5621, "fclass": "bus_stop", "name": null }, "geometry": { "type": "Point", "coordinates": [ 80.5113906, 8.5023984 ] } },
{ "type": "Feature", "properties": { "osm_id": "8050970883", "code": 5621, "fclass": "bus_stop", "name": null }, "geometry": { "type": "Point", "coordinates": [ 80.4862542, 8.5527227 ] } },
{ "type": "Feature", "properties": { "osm_id": "8050985694", "code": 5621, "fclass": "bus_stop", "name": null }, "geometry": { "type": "Point", "coordinates": [ 80.4877576, 8.549382 ] } },
{ "type": "Feature", "properties": { "osm_id": "8050985697", "code": 5621, "fclass": "bus_stop", "name": null }, "geometry": { "type": "Point", "coordinates": [ 80.4883584, 8.5485226 ] } },
{ "type": "Feature", "properties": { "osm_id": "8058968274", "code": 5621, "fclass": "bus_stop", "name": null }, "geometry": { "type": "Point", "coordinates": [ 80.4772219, 8.5713114 ] } },
{ "type": "Feature", "properties": { "osm_id": "8062864920", "code": 5621, "fclass": "bus_stop", "name": null }, "geometry": { "type": "Point", "coordinates": [ 80.4717435, 8.5994216 ] } },
{ "type": "Feature", "properties": { "osm_id": "8062864921", "code": 5621, "fclass": "bus_stop", "name": null }, "geometry": { "type": "Point", "coordinates": [ 80.4718883, 8.5990265 ] } },
{ "type": "Feature", "properties": { "osm_id": "8065593514", "code": 5621, "fclass": "bus_stop", "name": null }, "geometry": { "type": "Point", "coordinates": [ 80.4704279, 8.6127427 ] } },
{ "type": "Feature", "properties": { "osm_id": "8065593515", "code": 5621, "fclass": "bus_stop", "name": null }, "geometry": { "type": "Point", "coordinates": [ 80.4706746, 8.6116699 ] } },
{ "type": "Feature", "properties": { "osm_id": "8071142221", "code": 5621, "fclass": "bus_stop", "name": null }, "geometry": { "type": "Point", "coordinates": [ 80.473959, 8.6483621 ] } },
{ "type": "Feature", "properties": { "osm_id": "8071142222", "code": 5621, "fclass": "bus_stop", "name": null }, "geometry": { "type": "Point", "coordinates": [ 80.4740086, 8.6477589 ] } },
{ "type": "Feature", "properties": { "osm_id": "8100897232", "code": 5621, "fclass": "bus_stop", "name": null }, "geometry": { "type": "Point", "coordinates": [ 80.4784906, 8.6750865 ] } },
{ "type": "Feature", "properties": { "osm_id": "8100897234", "code": 5621, "fclass": "bus_stop", "name": null }, "geometry": { "type": "Point", "coordinates": [ 80.47839, 8.6739954 ] } },
{ "type": "Feature", "properties": { "osm_id": "8100897255", "code": 5621, "fclass": "bus_stop", "name": null }, "geometry": { "type": "Point", "coordinates": [ 80.4759894, 8.6615913 ] } },
{ "type": "Feature", "properties": { "osm_id": "8100897256", "code": 5621, "fclass": "bus_stop", "name": null }, "geometry": { "type": "Point", "coordinates": [ 80.4759653, 8.660886 ] } },
{ "type": "Feature", "properties": { "osm_id": "8145673484", "code": 5621, "fclass": "bus_stop", "name": null }, "geometry": { "type": "Point", "coordinates": [ 80.4813807, 8.6892559 ] } },
{ "type": "Feature", "properties": { "osm_id": "8145673485", "code": 5621, "fclass": "bus_stop", "name": null }, "geometry": { "type": "Point", "coordinates": [ 80.4813418, 8.6897173 ] } },
{ "type": "Feature", "properties": { "osm_id": "8145673501", "code": 5621, "fclass": "bus_stop", "name": null }, "geometry": { "type": "Point", "coordinates": [ 80.479935, 8.6818458 ] } },
{ "type": "Feature", "properties": { "osm_id": "8146159943", "code": 5621, "fclass": "bus_stop", "name": null }, "geometry": { "type": "Point", "coordinates": [ 80.482184, 8.7092153 ] } },
{ "type": "Feature", "properties": { "osm_id": "8146159944", "code": 5621, "fclass": "bus_stop", "name": null }, "geometry": { "type": "Point", "coordinates": [ 80.4822631, 8.7086625 ] } },
{ "type": "Feature", "properties": { "osm_id": "8146159946", "code": 5621, "fclass": "bus_stop", "name": null }, "geometry": { "type": "Point", "coordinates": [ 80.4823959, 8.7040599 ] } },
{ "type": "Feature", "properties": { "osm_id": "8146159947", "code": 5621, "fclass": "bus_stop", "name": null }, "geometry": { "type": "Point", "coordinates": [ 80.4825273, 8.7037444 ] } },
{ "type": "Feature", "properties": { "osm_id": "8146159951", "code": 5621, "fclass": "bus_stop", "name": null }, "geometry": { "type": "Point", "coordinates": [ 80.4827714, 8.6982693 ] } },
{ "type": "Feature", "properties": { "osm_id": "8146159952", "code": 5621, "fclass": "bus_stop", "name": null }, "geometry": { "type": "Point", "coordinates": [ 80.4829176, 8.6975641 ] } },
{ "type": "Feature", "properties": { "osm_id": "8168240648", "code": 5621, "fclass": "bus_stop", "name": null }, "geometry": { "type": "Point", "coordinates": [ 80.4892007, 8.7291087 ] } },
{ "type": "Feature", "properties": { "osm_id": "8168240650", "code": 5621, "fclass": "bus_stop", "name": null }, "geometry": { "type": "Point", "coordinates": [ 80.4890116, 8.7279912 ] } },
{ "type": "Feature", "properties": { "osm_id": "8255246671", "code": 5621, "fclass": "bus_stop", "name": null }, "geometry": { "type": "Point", "coordinates": [ 80.494439, 8.7439892 ] } },
{ "type": "Feature", "properties": { "osm_id": "8255246673", "code": 5621, "fclass": "bus_stop", "name": null }, "geometry": { "type": "Point", "coordinates": [ 80.4944645, 8.7435797 ] } },
{ "type": "Feature", "properties": { "osm_id": "8449191340", "code": 5621, "fclass": "bus_stop", "name": null }, "geometry": { "type": "Point", "coordinates": [ 80.5051877, 8.8786626 ] } },
{ "type": "Feature", "properties": { "osm_id": "8456100880", "code": 5621, "fclass": "bus_stop", "name": "Library" }, "geometry": { "type": "Point", "coordinates": [ 80.4064719, 8.3271457 ] } },
{ "type": "Feature", "properties": { "osm_id": "8522099115", "code": 5621, "fclass": "bus_stop", "name": null }, "geometry": { "type": "Point", "coordinates": [ 80.5255593, 8.9656857 ] } },
{ "type": "Feature", "properties": { "osm_id": "8522181717", "code": 5621, "fclass": "bus_stop", "name": null }, "geometry": { "type": "Point", "coordinates": [ 80.5253743, 8.9642855 ] } },
{ "type": "Feature", "properties": { "osm_id": "8522181726", "code": 5621, "fclass": "bus_stop", "name": null }, "geometry": { "type": "Point", "coordinates": [ 80.5237408, 8.9597549 ] } },
{ "type": "Feature", "properties": { "osm_id": "8522181728", "code": 5621, "fclass": "bus_stop", "name": null }, "geometry": { "type": "Point", "coordinates": [ 80.5235557, 8.9589071 ] } },
{ "type": "Feature", "properties": { "osm_id": "8522181737", "code": 5621, "fclass": "bus_stop", "name": null }, "geometry": { "type": "Point", "coordinates": [ 80.5222243, 8.9553044 ] } },
{ "type": "Feature", "properties": { "osm_id": "8522181738", "code": 5621, "fclass": "bus_stop", "name": null }, "geometry": { "type": "Point", "coordinates": [ 80.5220684, 8.9545334 ] } },
{ "type": "Feature", "properties": { "osm_id": "8522181746", "code": 5621, "fclass": "bus_stop", "name": null }, "geometry": { "type": "Point", "coordinates": [ 80.5179714, 8.9415313 ] } },
{ "type": "Feature", "properties": { "osm_id": "8522181748", "code": 5621, "fclass": "bus_stop", "name": null }, "geometry": { "type": "Point", "coordinates": [ 80.5175952, 8.9402873 ] } },
{ "type": "Feature", "properties": { "osm_id": "8524323781", "code": 5621, "fclass": "bus_stop", "name": null }, "geometry": { "type": "Point", "coordinates": [ 80.527508, 8.9821728 ] } },
{ "type": "Feature", "properties": { "osm_id": "8524323783", "code": 5621, "fclass": "bus_stop", "name": null }, "geometry": { "type": "Point", "coordinates": [ 80.5273765, 8.981537 ] } },
{ "type": "Feature", "properties": { "osm_id": "8524323796", "code": 5621, "fclass": "bus_stop", "name": null }, "geometry": { "type": "Point", "coordinates": [ 80.526938, 8.9720934 ] } },
{ "type": "Feature", "properties": { "osm_id": "8524323798", "code": 5621, "fclass": "bus_stop", "name": null }, "geometry": { "type": "Point", "coordinates": [ 80.5268636, 8.9712634 ] } },
{ "type": "Feature", "properties": { "osm_id": "8531780775", "code": 5621, "fclass": "bus_stop", "name": null }, "geometry": { "type": "Point", "coordinates": [ 80.5275992, 8.9894319 ] } },
{ "type": "Feature", "properties": { "osm_id": "8531780777", "code": 5621, "fclass": "bus_stop", "name": null }, "geometry": { "type": "Point", "coordinates": [ 80.5277628, 8.9888093 ] } },
{ "type": "Feature", "properties": { "osm_id": "8531907363", "code": 5621, "fclass": "bus_stop", "name": null }, "geometry": { "type": "Point", "coordinates": [ 80.5244221, 9.0160017 ] } },
{ "type": "Feature", "properties": { "osm_id": "8531907365", "code": 5621, "fclass": "bus_stop", "name": null }, "geometry": { "type": "Point", "coordinates": [ 80.5246702, 9.014799 ] } },
{ "type": "Feature", "properties": { "osm_id": "8531907375", "code": 5621, "fclass": "bus_stop", "name": null }, "geometry": { "type": "Point", "coordinates": [ 80.5254936, 9.0076213 ] } },
{ "type": "Feature", "properties": { "osm_id": "8531907377", "code": 5621, "fclass": "bus_stop", "name": null }, "geometry": { "type": "Point", "coordinates": [ 80.5256693, 9.0069391 ] } },
{ "type": "Feature", "properties": { "osm_id": "8531907410", "code": 5621, "fclass": "bus_stop", "name": null }, "geometry": { "type": "Point", "coordinates": [ 80.5264579, 8.9976438 ] } },
{ "type": "Feature", "properties": { "osm_id": "8531907412", "code": 5621, "fclass": "bus_stop", "name": null }, "geometry": { "type": "Point", "coordinates": [ 80.5266108, 8.9970882 ] } },
{ "type": "Feature", "properties": { "osm_id": "8544327836", "code": 5621, "fclass": "bus_stop", "name": null }, "geometry": { "type": "Point", "coordinates": [ 80.5221181, 9.0332732 ] } },
{ "type": "Feature", "properties": { "osm_id": "8544327845", "code": 5621, "fclass": "bus_stop", "name": null }, "geometry": { "type": "Point", "coordinates": [ 80.5234625, 9.0232097 ] } },
{ "type": "Feature", "properties": { "osm_id": "8544327847", "code": 5621, "fclass": "bus_stop", "name": null }, "geometry": { "type": "Point", "coordinates": [ 80.5236644, 9.0223534 ] } },
{ "type": "Feature", "properties": { "osm_id": "8544473244", "code": 5621, "fclass": "bus_stop", "name": null }, "geometry": { "type": "Point", "coordinates": [ 80.5142847, 9.0514922 ] } },
{ "type": "Feature", "properties": { "osm_id": "8544473246", "code": 5621, "fclass": "bus_stop", "name": null }, "geometry": { "type": "Point", "coordinates": [ 80.5152355, 9.0504843 ] } },
{ "type": "Feature", "properties": { "osm_id": "8544473257", "code": 5621, "fclass": "bus_stop", "name": null }, "geometry": { "type": "Point", "coordinates": [ 80.5184253, 9.0452813 ] } },
{ "type": "Feature", "properties": { "osm_id": "8544473259", "code": 5621, "fclass": "bus_stop", "name": null }, "geometry": { "type": "Point", "coordinates": [ 80.5188377, 9.0444906 ] } },
{ "type": "Feature", "properties": { "osm_id": "8548481754", "code": 5621, "fclass": "bus_stop", "name": null }, "geometry": { "type": "Point", "coordinates": [ 80.5049157, 9.0614171 ] } },
{ "type": "Feature", "properties": { "osm_id": "8548481762", "code": 5621, "fclass": "bus_stop", "name": null }, "geometry": { "type": "Point", "coordinates": [ 80.5103137, 9.0565898 ] } },
{ "type": "Feature", "properties": { "osm_id": "8554784491", "code": 5621, "fclass": "bus_stop", "name": null }, "geometry": { "type": "Point", "coordinates": [ 80.4644211, 9.0960146 ] } },
{ "type": "Feature", "properties": { "osm_id": "8554784508", "code": 5621, "fclass": "bus_stop", "name": null }, "geometry": { "type": "Point", "coordinates": [ 80.4750708, 9.0869129 ] } },
{ "type": "Feature", "properties": { "osm_id": "8554789441", "code": 5621, "fclass": "bus_stop", "name": null }, "geometry": { "type": "Point", "coordinates": [ 80.4913665, 9.0729681 ] } },
{ "type": "Feature", "properties": { "osm_id": "8554789444", "code": 5621, "fclass": "bus_stop", "name": null }, "geometry": { "type": "Point", "coordinates": [ 80.4922758, 9.0723483 ] } },
{ "type": "Feature", "properties": { "osm_id": "8554789446", "code": 5621, "fclass": "bus_stop", "name": null }, "geometry": { "type": "Point", "coordinates": [ 80.4957117, 9.0693023 ] } },
{ "type": "Feature", "properties": { "osm_id": "8558161645", "code": 5621, "fclass": "bus_stop", "name": null }, "geometry": { "type": "Point", "coordinates": [ 80.458547, 9.1051855 ] } },
{ "type": "Feature", "properties": { "osm_id": "8558224925", "code": 5621, "fclass": "bus_stop", "name": null }, "geometry": { "type": "Point", "coordinates": [ 80.448887, 9.1249315 ] } },
{ "type": "Feature", "properties": { "osm_id": "8558224928", "code": 5621, "fclass": "bus_stop", "name": null }, "geometry": { "type": "Point", "coordinates": [ 80.4492961, 9.1242092 ] } },
{ "type": "Feature", "properties": { "osm_id": "8558224933", "code": 5621, "fclass": "bus_stop", "name": null }, "geometry": { "type": "Point", "coordinates": [ 80.4514539, 9.1195813 ] } },
{ "type": "Feature", "properties": { "osm_id": "8558224944", "code": 5621, "fclass": "bus_stop", "name": null }, "geometry": { "type": "Point", "coordinates": [ 80.4565461, 9.1090647 ] } },
{ "type": "Feature", "properties": { "osm_id": "8558224947", "code": 5621, "fclass": "bus_stop", "name": null }, "geometry": { "type": "Point", "coordinates": [ 80.457104, 9.1081695 ] } },
{ "type": "Feature", "properties": { "osm_id": "8558224951", "code": 5621, "fclass": "bus_stop", "name": null }, "geometry": { "type": "Point", "coordinates": [ 80.4580743, 9.1059343 ] } },
{ "type": "Feature", "properties": { "osm_id": "8560758681", "code": 5621, "fclass": "bus_stop", "name": null }, "geometry": { "type": "Point", "coordinates": [ 80.4380938, 9.1464659 ] } },
{ "type": "Feature", "properties": { "osm_id": "8560758688", "code": 5621, "fclass": "bus_stop", "name": null }, "geometry": { "type": "Point", "coordinates": [ 80.4412307, 9.1401845 ] } },
{ "type": "Feature", "properties": { "osm_id": "8560758697", "code": 5621, "fclass": "bus_stop", "name": null }, "geometry": { "type": "Point", "coordinates": [ 80.4439518, 9.1347399 ] } },
{ "type": "Feature", "properties": { "osm_id": "8560758700", "code": 5621, "fclass": "bus_stop", "name": null }, "geometry": { "type": "Point", "coordinates": [ 80.4445714, 9.1338209 ] } },
{ "type": "Feature", "properties": { "osm_id": "8560758708", "code": 5621, "fclass": "bus_stop", "name": null }, "geometry": { "type": "Point", "coordinates": [ 80.4472455, 9.1284861 ] } },
{ "type": "Feature", "properties": { "osm_id": "8560758711", "code": 5621, "fclass": "bus_stop", "name": null }, "geometry": { "type": "Point", "coordinates": [ 80.447904, 9.1269634 ] } },
{ "type": "Feature", "properties": { "osm_id": "8568720992", "code": 5621, "fclass": "bus_stop", "name": null }, "geometry": { "type": "Point", "coordinates": [ 80.4229823, 9.176232 ] } },
{ "type": "Feature", "properties": { "osm_id": "8568720995", "code": 5621, "fclass": "bus_stop", "name": null }, "geometry": { "type": "Point", "coordinates": [ 80.4234208, 9.1756746 ] } },
{ "type": "Feature", "properties": { "osm_id": "8568720997", "code": 5621, "fclass": "bus_stop", "name": null }, "geometry": { "type": "Point", "coordinates": [ 80.426107, 9.170114 ] } },
{ "type": "Feature", "properties": { "osm_id": "8569317190", "code": 5621, "fclass": "bus_stop", "name": null }, "geometry": { "type": "Point", "coordinates": [ 80.4186974, 9.2092284 ] } },
{ "type": "Feature", "properties": { "osm_id": "8569317192", "code": 5621, "fclass": "bus_stop", "name": null }, "geometry": { "type": "Point", "coordinates": [ 80.4189067, 9.2087174 ] } },
{ "type": "Feature", "properties": { "osm_id": "8569317208", "code": 5621, "fclass": "bus_stop", "name": null }, "geometry": { "type": "Point", "coordinates": [ 80.4216626, 9.1866486 ] } },
{ "type": "Feature", "properties": { "osm_id": "8569317210", "code": 5621, "fclass": "bus_stop", "name": null }, "geometry": { "type": "Point", "coordinates": [ 80.4219121, 9.1857152 ] } },
{ "type": "Feature", "properties": { "osm_id": "8583498558", "code": 5621, "fclass": "bus_stop", "name": null }, "geometry": { "type": "Point", "coordinates": [ 80.4102404, 9.2730081 ] } },
{ "type": "Feature", "properties": { "osm_id": "8583498564", "code": 5621, "fclass": "bus_stop", "name": null }, "geometry": { "type": "Point", "coordinates": [ 80.4103967, 9.2722193 ] } },
{ "type": "Feature", "properties": { "osm_id": "8583498591", "code": 5621, "fclass": "bus_stop", "name": null }, "geometry": { "type": "Point", "coordinates": [ 80.4156625, 9.232037 ] } },
{ "type": "Feature", "properties": { "osm_id": "8583498593", "code": 5621, "fclass": "bus_stop", "name": null }, "geometry": { "type": "Point", "coordinates": [ 80.4158704, 9.2312851 ] } },
{ "type": "Feature", "properties": { "osm_id": "8599477518", "code": 5621, "fclass": "bus_stop", "name": null }, "geometry": { "type": "Point", "coordinates": [ 80.4092822, 9.3429615 ] } },
{ "type": "Feature", "properties": { "osm_id": "8599477527", "code": 5621, "fclass": "bus_stop", "name": null }, "geometry": { "type": "Point", "coordinates": [ 80.4092172, 9.3369338 ] } },
{ "type": "Feature", "properties": { "osm_id": "8599477531", "code": 5621, "fclass": "bus_stop", "name": null }, "geometry": { "type": "Point", "coordinates": [ 80.4093204, 9.3359876 ] } },
{ "type": "Feature", "properties": { "osm_id": "8599477537", "code": 5621, "fclass": "bus_stop", "name": null }, "geometry": { "type": "Point", "coordinates": [ 80.4092474, 9.3343705 ] } },
{ "type": "Feature", "properties": { "osm_id": "8599477540", "code": 5621, "fclass": "bus_stop", "name": null }, "geometry": { "type": "Point", "coordinates": [ 80.4093385, 9.3332251 ] } },
{ "type": "Feature", "properties": { "osm_id": "8599477554", "code": 5621, "fclass": "bus_stop", "name": null }, "geometry": { "type": "Point", "coordinates": [ 80.4093325, 9.3239648 ] } },
{ "type": "Feature", "properties": { "osm_id": "8599477563", "code": 5621, "fclass": "bus_stop", "name": null }, "geometry": { "type": "Point", "coordinates": [ 80.4094398, 9.3230226 ] } },
{ "type": "Feature", "properties": { "osm_id": "8599477571", "code": 5621, "fclass": "bus_stop", "name": null }, "geometry": { "type": "Point", "coordinates": [ 80.4093915, 9.3195063 ] } },
{ "type": "Feature", "properties": { "osm_id": "8599477577", "code": 5621, "fclass": "bus_stop", "name": null }, "geometry": { "type": "Point", "coordinates": [ 80.4095089, 9.318302 ] } },
{ "type": "Feature", "properties": { "osm_id": "8599477588", "code": 5621, "fclass": "bus_stop", "name": null }, "geometry": { "type": "Point", "coordinates": [ 80.4094867, 9.3135893 ] } },
{ "type": "Feature", "properties": { "osm_id": "8599477592", "code": 5621, "fclass": "bus_stop", "name": null }, "geometry": { "type": "Point", "coordinates": [ 80.4096262, 9.3129991 ] } },
{ "type": "Feature", "properties": { "osm_id": "8599477595", "code": 5621, "fclass": "bus_stop", "name": null }, "geometry": { "type": "Point", "coordinates": [ 80.4100876, 9.3046449 ] } },
{ "type": "Feature", "properties": { "osm_id": "8599477596", "code": 5621, "fclass": "bus_stop", "name": null }, "geometry": { "type": "Point", "coordinates": [ 80.4097188, 9.2994456 ] } },
{ "type": "Feature", "properties": { "osm_id": "8599477597", "code": 5621, "fclass": "bus_stop", "name": null }, "geometry": { "type": "Point", "coordinates": [ 80.4098247, 9.2986012 ] } },
{ "type": "Feature", "properties": { "osm_id": "8607302397", "code": 5621, "fclass": "bus_stop", "name": null }, "geometry": { "type": "Point", "coordinates": [ 80.4089121, 9.3546277 ] } },
{ "type": "Feature", "properties": { "osm_id": "8607302401", "code": 5621, "fclass": "bus_stop", "name": null }, "geometry": { "type": "Point", "coordinates": [ 80.4090321, 9.3535823 ] } },
{ "type": "Feature", "properties": { "osm_id": "8607302407", "code": 5621, "fclass": "bus_stop", "name": null }, "geometry": { "type": "Point", "coordinates": [ 80.4090308, 9.3494007 ] } },
{ "type": "Feature", "properties": { "osm_id": "8607302409", "code": 5621, "fclass": "bus_stop", "name": null }, "geometry": { "type": "Point", "coordinates": [ 80.4091689, 9.3486861 ] } },
{ "type": "Feature", "properties": { "osm_id": "8617006903", "code": 5621, "fclass": "bus_stop", "name": null }, "geometry": { "type": "Point", "coordinates": [ 80.4086579, 9.3649662 ] } },
{ "type": "Feature", "properties": { "osm_id": "8617006910", "code": 5621, "fclass": "bus_stop", "name": null }, "geometry": { "type": "Point", "coordinates": [ 80.4087679, 9.3640327 ] } },
{ "type": "Feature", "properties": { "osm_id": "8617006913", "code": 5621, "fclass": "bus_stop", "name": null }, "geometry": { "type": "Point", "coordinates": [ 80.4088175, 9.3580853 ] } },
{ "type": "Feature", "properties": { "osm_id": "8617006915", "code": 5621, "fclass": "bus_stop", "name": null }, "geometry": { "type": "Point", "coordinates": [ 80.408949, 9.3575124 ] } },
{ "type": "Feature", "properties": { "osm_id": "8617092122", "code": 5621, "fclass": "bus_stop", "name": null }, "geometry": { "type": "Point", "coordinates": [ 80.4084333, 9.3811582 ] } },
{ "type": "Feature", "properties": { "osm_id": "8617092129", "code": 5621, "fclass": "bus_stop", "name": null }, "geometry": { "type": "Point", "coordinates": [ 80.4085265, 9.3802181 ] } },
{ "type": "Feature", "properties": { "osm_id": "8617092131", "code": 5621, "fclass": "bus_stop", "name": null }, "geometry": { "type": "Point", "coordinates": [ 80.4106432, 9.3785623 ] } },
{ "type": "Feature", "properties": { "osm_id": "8617092138", "code": 5621, "fclass": "bus_stop", "name": null }, "geometry": { "type": "Point", "coordinates": [ 80.4085701, 9.3779005 ] } },
{ "type": "Feature", "properties": { "osm_id": "8617092146", "code": 5621, "fclass": "bus_stop", "name": null }, "geometry": { "type": "Point", "coordinates": [ 80.4085513, 9.3727375 ] } },
{ "type": "Feature", "properties": { "osm_id": "8617092154", "code": 5621, "fclass": "bus_stop", "name": null }, "geometry": { "type": "Point", "coordinates": [ 80.4086207, 9.3718079 ] } },
{ "type": "Feature", "properties": { "osm_id": "8626980731", "code": 5621, "fclass": "bus_stop", "name": null }, "geometry": { "type": "Point", "coordinates": [ 80.4083589, 9.3848862 ] } },
{ "type": "Feature", "properties": { "osm_id": "8626980734", "code": 5621, "fclass": "bus_stop", "name": null }, "geometry": { "type": "Point", "coordinates": [ 80.4084823, 9.3839249 ] } },
{ "type": "Feature", "properties": { "osm_id": "8629532371", "code": 5621, "fclass": "bus_stop", "name": null }, "geometry": { "type": "Point", "coordinates": [ 80.4077071, 9.4268998 ] } },
{ "type": "Feature", "properties": { "osm_id": "8629532373", "code": 5621, "fclass": "bus_stop", "name": null }, "geometry": { "type": "Point", "coordinates": [ 80.4077956, 9.4262978 ] } },
{ "type": "Feature", "properties": { "osm_id": "8629532379", "code": 5621, "fclass": "bus_stop", "name": null }, "geometry": { "type": "Point", "coordinates": [ 80.4077741, 9.4183782 ] } },
{ "type": "Feature", "properties": { "osm_id": "8629532381", "code": 5621, "fclass": "bus_stop", "name": null }, "geometry": { "type": "Point", "coordinates": [ 80.4078855, 9.4174839 ] } },
{ "type": "Feature", "properties": { "osm_id": "8629532384", "code": 5621, "fclass": "bus_stop", "name": null }, "geometry": { "type": "Point", "coordinates": [ 80.407919, 9.4097547 ] } },
{ "type": "Feature", "properties": { "osm_id": "8640059917", "code": 5621, "fclass": "bus_stop", "name": null }, "geometry": { "type": "Point", "coordinates": [ 80.4074, 9.4543336 ] } },
{ "type": "Feature", "properties": { "osm_id": "8670509686", "code": 5621, "fclass": "bus_stop", "name": null }, "geometry": { "type": "Point", "coordinates": [ 80.0307417, 7.3415024 ] } },
{ "type": "Feature", "properties": { "osm_id": "8771443531", "code": 5621, "fclass": "bus_stop", "name": null }, "geometry": { "type": "Point", "coordinates": [ 79.8408638, 7.2052089 ] } },
{ "type": "Feature", "properties": { "osm_id": "9380049329", "code": 5621, "fclass": "bus_stop", "name": null }, "geometry": { "type": "Point", "coordinates": [ 80.1751408, 9.3657826 ] } },
{ "type": "Feature", "properties": { "osm_id": "9380049332", "code": 5621, "fclass": "bus_stop", "name": null }, "geometry": { "type": "Point", "coordinates": [ 80.1748551, 9.3648326 ] } },
{ "type": "Feature", "properties": { "osm_id": "9381516886", "code": 5621, "fclass": "bus_stop", "name": null }, "geometry": { "type": "Point", "coordinates": [ 80.1995308, 9.4385128 ] } },
{ "type": "Feature", "properties": { "osm_id": "9381516889", "code": 5621, "fclass": "bus_stop", "name": null }, "geometry": { "type": "Point", "coordinates": [ 80.199443, 9.4372811 ] } },
{ "type": "Feature", "properties": { "osm_id": "9381520933", "code": 5621, "fclass": "bus_stop", "name": null }, "geometry": { "type": "Point", "coordinates": [ 80.1923043, 9.4072144 ] } },
{ "type": "Feature", "properties": { "osm_id": "9381520936", "code": 5621, "fclass": "bus_stop", "name": null }, "geometry": { "type": "Point", "coordinates": [ 80.191924, 9.4059283 ] } },
{ "type": "Feature", "properties": { "osm_id": "9381544997", "code": 5621, "fclass": "bus_stop", "name": null }, "geometry": { "type": "Point", "coordinates": [ 80.2009785, 9.4488819 ] } },
{ "type": "Feature", "properties": { "osm_id": "9381545007", "code": 5621, "fclass": "bus_stop", "name": null }, "geometry": { "type": "Point", "coordinates": [ 80.2007438, 9.4475815 ] } },
{ "type": "Feature", "properties": { "osm_id": "9382631986", "code": 5621, "fclass": "bus_stop", "name": null }, "geometry": { "type": "Point", "coordinates": [ 80.2087549, 9.4898857 ] } },
{ "type": "Feature", "properties": { "osm_id": "9382631989", "code": 5621, "fclass": "bus_stop", "name": null }, "geometry": { "type": "Point", "coordinates": [ 80.2084706, 9.488682 ] } },
{ "type": "Feature", "properties": { "osm_id": "9382632001", "code": 5621, "fclass": "bus_stop", "name": null }, "geometry": { "type": "Point", "coordinates": [ 80.20642, 9.4776315 ] } },
{ "type": "Feature", "properties": { "osm_id": "9382632012", "code": 5621, "fclass": "bus_stop", "name": null }, "geometry": { "type": "Point", "coordinates": [ 80.2061706, 9.4762941 ] } },
{ "type": "Feature", "properties": { "osm_id": "9382632014", "code": 5621, "fclass": "bus_stop", "name": null }, "geometry": { "type": "Point", "coordinates": [ 80.2059259, 9.4745507 ] } },
{ "type": "Feature", "properties": { "osm_id": "9382637918", "code": 5621, "fclass": "bus_stop", "name": null }, "geometry": { "type": "Point", "coordinates": [ 80.2056268, 9.4733734 ] } },
{ "type": "Feature", "properties": { "osm_id": "9382637920", "code": 5621, "fclass": "bus_stop", "name": null }, "geometry": { "type": "Point", "coordinates": [ 80.2055772, 9.4726379 ] } },
{ "type": "Feature", "properties": { "osm_id": "9382637924", "code": 5621, "fclass": "bus_stop", "name": null }, "geometry": { "type": "Point", "coordinates": [ 80.2049951, 9.4692144 ] } },
{ "type": "Feature", "properties": { "osm_id": "9382637931", "code": 5621, "fclass": "bus_stop", "name": null }, "geometry": { "type": "Point", "coordinates": [ 80.2047269, 9.4681495 ] } },
{ "type": "Feature", "properties": { "osm_id": "9383320662", "code": 5621, "fclass": "bus_stop", "name": null }, "geometry": { "type": "Point", "coordinates": [ 80.2092706, 9.5071207 ] } },
{ "type": "Feature", "properties": { "osm_id": "9383321432", "code": 5621, "fclass": "bus_stop", "name": null }, "geometry": { "type": "Point", "coordinates": [ 80.2114505, 9.505007 ] } },
{ "type": "Feature", "properties": { "osm_id": "9383321434", "code": 5621, "fclass": "bus_stop", "name": null }, "geometry": { "type": "Point", "coordinates": [ 80.211586, 9.5047511 ] } },
{ "type": "Feature", "properties": { "osm_id": "9383321449", "code": 5621, "fclass": "bus_stop", "name": null }, "geometry": { "type": "Point", "coordinates": [ 80.2117597, 9.5037174 ] } },
{ "type": "Feature", "properties": { "osm_id": "9383321456", "code": 5621, "fclass": "bus_stop", "name": null }, "geometry": { "type": "Point", "coordinates": [ 80.2114747, 9.5033398 ] } },
{ "type": "Feature", "properties": { "osm_id": "9383321461", "code": 5621, "fclass": "bus_stop", "name": null }, "geometry": { "type": "Point", "coordinates": [ 80.2108933, 9.5011514 ] } },
{ "type": "Feature", "properties": { "osm_id": "9383321473", "code": 5621, "fclass": "bus_stop", "name": null }, "geometry": { "type": "Point", "coordinates": [ 80.2107444, 9.4999027 ] } },
{ "type": "Feature", "properties": { "osm_id": "9383321488", "code": 5621, "fclass": "bus_stop", "name": null }, "geometry": { "type": "Point", "coordinates": [ 80.2093685, 9.4932283 ] } },
{ "type": "Feature", "properties": { "osm_id": "9383321491", "code": 5621, "fclass": "bus_stop", "name": null }, "geometry": { "type": "Point", "coordinates": [ 80.2090774, 9.4920444 ] } },
{ "type": "Feature", "properties": { "osm_id": "9383845432", "code": 5621, "fclass": "bus_stop", "name": null }, "geometry": { "type": "Point", "coordinates": [ 80.2015398, 9.5203473 ] } },
{ "type": "Feature", "properties": { "osm_id": "9383845438", "code": 5621, "fclass": "bus_stop", "name": null }, "geometry": { "type": "Point", "coordinates": [ 80.2018502, 9.5199016 ] } },
{ "type": "Feature", "properties": { "osm_id": "9383845448", "code": 5621, "fclass": "bus_stop", "name": null }, "geometry": { "type": "Point", "coordinates": [ 80.2042032, 9.5141236 ] } },
{ "type": "Feature", "properties": { "osm_id": "9383845451", "code": 5621, "fclass": "bus_stop", "name": null }, "geometry": { "type": "Point", "coordinates": [ 80.2045673, 9.5129755 ] } },
{ "type": "Feature", "properties": { "osm_id": "9383845497", "code": 5621, "fclass": "bus_stop", "name": null }, "geometry": { "type": "Point", "coordinates": [ 80.2086054, 9.5079712 ] } },
{ "type": "Feature", "properties": { "osm_id": "9396691953", "code": 5621, "fclass": "bus_stop", "name": null }, "geometry": { "type": "Point", "coordinates": [ 80.1905514, 9.537545 ] } },
{ "type": "Feature", "properties": { "osm_id": "9396691958", "code": 5621, "fclass": "bus_stop", "name": null }, "geometry": { "type": "Point", "coordinates": [ 80.1900941, 9.5366669 ] } },
{ "type": "Feature", "properties": { "osm_id": "9396691968", "code": 5621, "fclass": "bus_stop", "name": null }, "geometry": { "type": "Point", "coordinates": [ 80.1898708, 9.5344119 ] } },
{ "type": "Feature", "properties": { "osm_id": "9396691970", "code": 5621, "fclass": "bus_stop", "name": null }, "geometry": { "type": "Point", "coordinates": [ 80.1903677, 9.5331726 ] } },
{ "type": "Feature", "properties": { "osm_id": "9396691978", "code": 5621, "fclass": "bus_stop", "name": null }, "geometry": { "type": "Point", "coordinates": [ 80.1929654, 9.5306941 ] } },
{ "type": "Feature", "properties": { "osm_id": "9396691980", "code": 5621, "fclass": "bus_stop", "name": null }, "geometry": { "type": "Point", "coordinates": [ 80.1939136, 9.5301836 ] } },
{ "type": "Feature", "properties": { "osm_id": "9399483566", "code": 5621, "fclass": "bus_stop", "name": null }, "geometry": { "type": "Point", "coordinates": [ 79.9237917, 8.9452275 ] } },
{ "type": "Feature", "properties": { "osm_id": "9399742374", "code": 5621, "fclass": "bus_stop", "name": null }, "geometry": { "type": "Point", "coordinates": [ 79.9667519, 8.9500544 ] } },
{ "type": "Feature", "properties": { "osm_id": "9399742380", "code": 5621, "fclass": "bus_stop", "name": null }, "geometry": { "type": "Point", "coordinates": [ 79.9673916, 8.9503803 ] } },
{ "type": "Feature", "properties": { "osm_id": "9399745857", "code": 5622, "fclass": "bus_station", "name": "Galgamuwa Bus Stand" }, "geometry": { "type": "Point", "coordinates": [ 80.2703445, 7.996165 ] } },
{ "type": "Feature", "properties": { "osm_id": "9399764924", "code": 5621, "fclass": "bus_stop", "name": null }, "geometry": { "type": "Point", "coordinates": [ 79.9596696, 8.9474664 ] } },
{ "type": "Feature", "properties": { "osm_id": "9400273079", "code": 5622, "fclass": "bus_station", "name": "Nawagattegama Bus Stand" }, "geometry": { "type": "Point", "coordinates": [ 80.1052003, 8.0040141 ] } },
{ "type": "Feature", "properties": { "osm_id": "9400611569", "code": 5621, "fclass": "bus_stop", "name": "Wetakeluwagama Bus Stop" }, "geometry": { "type": "Point", "coordinates": [ 80.3014536, 8.0057514 ] } },
{ "type": "Feature", "properties": { "osm_id": "9401969458", "code": 5621, "fclass": "bus_stop", "name": null }, "geometry": { "type": "Point", "coordinates": [ 79.9789949, 8.9567888 ] } },
{ "type": "Feature", "properties": { "osm_id": "9402127411", "code": 5621, "fclass": "bus_stop", "name": null }, "geometry": { "type": "Point", "coordinates": [ 80.006277, 8.9727477 ] } },
{ "type": "Feature", "properties": { "osm_id": "9402127414", "code": 5621, "fclass": "bus_stop", "name": null }, "geometry": { "type": "Point", "coordinates": [ 80.0051893, 8.9727756 ] } },
{ "type": "Feature", "properties": { "osm_id": "9402127420", "code": 5621, "fclass": "bus_stop", "name": null }, "geometry": { "type": "Point", "coordinates": [ 80.0014168, 8.9724272 ] } },
{ "type": "Feature", "properties": { "osm_id": "9402127423", "code": 5621, "fclass": "bus_stop", "name": null }, "geometry": { "type": "Point", "coordinates": [ 80.0000985, 8.972451 ] } },
{ "type": "Feature", "properties": { "osm_id": "9402432810", "code": 5621, "fclass": "bus_stop", "name": null }, "geometry": { "type": "Point", "coordinates": [ 79.7290854, 9.0983823 ] } },
{ "type": "Feature", "properties": { "osm_id": "9402432814", "code": 5621, "fclass": "bus_stop", "name": null }, "geometry": { "type": "Point", "coordinates": [ 79.7291873, 9.0995953 ] } },
{ "type": "Feature", "properties": { "osm_id": "9404299287", "code": 5621, "fclass": "bus_stop", "name": null }, "geometry": { "type": "Point", "coordinates": [ 79.782686, 9.0691758 ] } },
{ "type": "Feature", "properties": { "osm_id": "9404299288", "code": 5621, "fclass": "bus_stop", "name": null }, "geometry": { "type": "Point", "coordinates": [ 79.7826625, 9.0690798 ] } },
{ "type": "Feature", "properties": { "osm_id": "9404543678", "code": 5621, "fclass": "bus_stop", "name": null }, "geometry": { "type": "Point", "coordinates": [ 79.7938353, 9.0688845 ] } },
{ "type": "Feature", "properties": { "osm_id": "9404543679", "code": 5621, "fclass": "bus_stop", "name": null }, "geometry": { "type": "Point", "coordinates": [ 79.7938366, 9.0687852 ] } },
{ "type": "Feature", "properties": { "osm_id": "9405891396", "code": 5621, "fclass": "bus_stop", "name": null }, "geometry": { "type": "Point", "coordinates": [ 79.8089026, 9.0803167 ] } },
{ "type": "Feature", "properties": { "osm_id": "9405891397", "code": 5621, "fclass": "bus_stop", "name": null }, "geometry": { "type": "Point", "coordinates": [ 79.8089308, 9.0804908 ] } },
{ "type": "Feature", "properties": { "osm_id": "9407384247", "code": 5621, "fclass": "bus_stop", "name": null }, "geometry": { "type": "Point", "coordinates": [ 79.8455449, 9.072435 ] } },
{ "type": "Feature", "properties": { "osm_id": "9407384248", "code": 5621, "fclass": "bus_stop", "name": null }, "geometry": { "type": "Point", "coordinates": [ 79.845732, 9.0722615 ] } },
{ "type": "Feature", "properties": { "osm_id": "9407384261", "code": 5621, "fclass": "bus_stop", "name": null }, "geometry": { "type": "Point", "coordinates": [ 79.8429338, 9.0791467 ] } },
{ "type": "Feature", "properties": { "osm_id": "9407384262", "code": 5621, "fclass": "bus_stop", "name": null }, "geometry": { "type": "Point", "coordinates": [ 79.842905, 9.0792817 ] } },
{ "type": "Feature", "properties": { "osm_id": "9407384282", "code": 5621, "fclass": "bus_stop", "name": null }, "geometry": { "type": "Point", "coordinates": [ 79.8286343, 9.0846789 ] } },
{ "type": "Feature", "properties": { "osm_id": "9407384283", "code": 5621, "fclass": "bus_stop", "name": null }, "geometry": { "type": "Point", "coordinates": [ 79.8287536, 9.084753 ] } },
{ "type": "Feature", "properties": { "osm_id": "9407677191", "code": 5621, "fclass": "bus_stop", "name": null }, "geometry": { "type": "Point", "coordinates": [ 79.8600322, 9.0499532 ] } },
{ "type": "Feature", "properties": { "osm_id": "9407677192", "code": 5621, "fclass": "bus_stop", "name": null }, "geometry": { "type": "Point", "coordinates": [ 79.8601261, 9.0499658 ] } },
{ "type": "Feature", "properties": { "osm_id": "9407677200", "code": 5621, "fclass": "bus_stop", "name": null }, "geometry": { "type": "Point", "coordinates": [ 79.8590874, 9.0521789 ] } },
{ "type": "Feature", "properties": { "osm_id": "9407677201", "code": 5621, "fclass": "bus_stop", "name": null }, "geometry": { "type": "Point", "coordinates": [ 79.8592208, 9.0521723 ] } },
{ "type": "Feature", "properties": { "osm_id": "9407677211", "code": 5621, "fclass": "bus_stop", "name": null }, "geometry": { "type": "Point", "coordinates": [ 79.8551861, 9.0575877 ] } },
{ "type": "Feature", "properties": { "osm_id": "9407686419", "code": 5621, "fclass": "bus_stop", "name": null }, "geometry": { "type": "Point", "coordinates": [ 79.8533307, 9.0601186 ] } },
{ "type": "Feature", "properties": { "osm_id": "9407686420", "code": 5621, "fclass": "bus_stop", "name": null }, "geometry": { "type": "Point", "coordinates": [ 79.8534313, 9.0601086 ] } },
{ "type": "Feature", "properties": { "osm_id": "9407686426", "code": 5621, "fclass": "bus_stop", "name": null }, "geometry": { "type": "Point", "coordinates": [ 79.8507451, 9.0639301 ] } },
{ "type": "Feature", "properties": { "osm_id": "9407686427", "code": 5621, "fclass": "bus_stop", "name": null }, "geometry": { "type": "Point", "coordinates": [ 79.8507357, 9.0637771 ] } },
{ "type": "Feature", "properties": { "osm_id": "9407686445", "code": 5621, "fclass": "bus_stop", "name": null }, "geometry": { "type": "Point", "coordinates": [ 79.8464726, 9.0705157 ] } },
{ "type": "Feature", "properties": { "osm_id": "9407686446", "code": 5621, "fclass": "bus_stop", "name": null }, "geometry": { "type": "Point", "coordinates": [ 79.8466929, 9.070335 ] } },
{ "type": "Feature", "properties": { "osm_id": "9409591954", "code": 5621, "fclass": "bus_stop", "name": null }, "geometry": { "type": "Point", "coordinates": [ 79.874832, 9.0201395 ] } },
{ "type": "Feature", "properties": { "osm_id": "9409591955", "code": 5621, "fclass": "bus_stop", "name": null }, "geometry": { "type": "Point", "coordinates": [ 79.8749185, 9.0201773 ] } },
{ "type": "Feature", "properties": { "osm_id": "9409591975", "code": 5621, "fclass": "bus_stop", "name": null }, "geometry": { "type": "Point", "coordinates": [ 79.8705035, 9.0304938 ] } },
{ "type": "Feature", "properties": { "osm_id": "9409591976", "code": 5621, "fclass": "bus_stop", "name": null }, "geometry": { "type": "Point", "coordinates": [ 79.8705639, 9.0305885 ] } },
{ "type": "Feature", "properties": { "osm_id": "9444222730", "code": 5621, "fclass": "bus_stop", "name": "Meegalewa" }, "geometry": { "type": "Point", "coordinates": [ 80.3548674, 8.0556357 ] } },
{ "type": "Feature", "properties": { "osm_id": "9444222755", "code": 5621, "fclass": "bus_stop", "name": "Hureegaswewa" }, "geometry": { "type": "Point", "coordinates": [ 80.3658889, 8.0773035 ] } },
{ "type": "Feature", "properties": { "osm_id": "9768782694", "code": 5621, "fclass": "bus_stop", "name": "bus stop" }, "geometry": { "type": "Point", "coordinates": [ 80.4688773, 8.7452509 ] } },
{ "type": "Feature", "properties": { "osm_id": "9779417978", "code": 5622, "fclass": "bus_station", "name": "Rathna Tevels" }, "geometry": { "type": "Point", "coordinates": [ 80.484995, 8.7561617 ] } },
{ "type": "Feature", "properties": { "osm_id": "10121907989", "code": 5621, "fclass": "bus_stop", "name": "Below  mirigama bus" }, "geometry": { "type": "Point", "coordinates": [ 80.128841, 7.2464051 ] } },
{ "type": "Feature", "properties": { "osm_id": "10126713665", "code": 5621, "fclass": "bus_stop", "name": "bus hold" }, "geometry": { "type": "Point", "coordinates": [ 80.3011187, 7.8293124 ] } },
{ "type": "Feature", "properties": { "osm_id": "10132398837", "code": 5621, "fclass": "bus_stop", "name": "Gal Amuna Bus stop" }, "geometry": { "type": "Point", "coordinates": [ 80.1110855, 7.2006937 ] } },
{ "type": "Feature", "properties": { "osm_id": "10154807482", "code": 5621, "fclass": "bus_stop", "name": "Pasyala Junction bus stop" }, "geometry": { "type": "Point", "coordinates": [ 80.123843, 7.1688918 ] } },
{ "type": "Feature", "properties": { "osm_id": "10154828351", "code": 5621, "fclass": "bus_stop", "name": "Pasyala Bus Stop" }, "geometry": { "type": "Point", "coordinates": [ 80.12411, 7.1690623 ] } },
{ "type": "Feature", "properties": { "osm_id": "10540079910", "code": 5621, "fclass": "bus_stop", "name": null }, "geometry": { "type": "Point", "coordinates": [ 80.2977641, 7.2184531 ] } },
{ "type": "Feature", "properties": { "osm_id": "10540080910", "code": 5621, "fclass": "bus_stop", "name": null }, "geometry": { "type": "Point", "coordinates": [ 80.3277435, 7.2621022 ] } },
{ "type": "Feature", "properties": { "osm_id": "10540081709", "code": 5621, "fclass": "bus_stop", "name": null }, "geometry": { "type": "Point", "coordinates": [ 80.320895, 7.2933519 ] } },
{ "type": "Feature", "properties": { "osm_id": "10754702005", "code": 5621, "fclass": "bus_stop", "name": "Night bus to Colombo 5AM" }, "geometry": { "type": "Point", "coordinates": [ 79.8845049, 7.1658842 ] } },
{ "type": "Feature", "properties": { "osm_id": "10877179805", "code": 5621, "fclass": "bus_stop", "name": null }, "geometry": { "type": "Point", "coordinates": [ 80.4117217, 8.3421301 ] } },
{ "type": "Feature", "properties": { "osm_id": "10880341005", "code": 5622, "fclass": "bus_station", "name": null }, "geometry": { "type": "Point", "coordinates": [ 80.4088944, 9.3842466 ] } },
{ "type": "Feature", "properties": { "osm_id": "11028932205", "code": 5622, "fclass": "bus_station", "name": null }, "geometry": { "type": "Point", "coordinates": [ 79.8602067, 7.2774201 ] } },
{ "type": "Feature", "properties": { "osm_id": "11132562676", "code": 5622, "fclass": "bus_station", "name": "Mahawa Bus station" }, "geometry": { "type": "Point", "coordinates": [ 80.273643, 7.8218196 ] } },
{ "type": "Feature", "properties": { "osm_id": "11178769841", "code": 5621, "fclass": "bus_stop", "name": null }, "geometry": { "type": "Point", "coordinates": [ 80.5101811, 8.3580959 ] } },
{ "type": "Feature", "properties": { "osm_id": "11273820399", "code": 5621, "fclass": "bus_stop", "name": null }, "geometry": { "type": "Point", "coordinates": [ 79.8308262, 7.4143163 ] } },
{ "type": "Feature", "properties": { "osm_id": "11442932150", "code": 5621, "fclass": "bus_stop", "name": null }, "geometry": { "type": "Point", "coordinates": [ 80.4625696, 8.119656 ] } },
{ "type": "Feature", "properties": { "osm_id": "11473175961", "code": 5621, "fclass": "bus_stop", "name": null }, "geometry": { "type": "Point", "coordinates": [ 80.2622361, 8.2834369 ] } },
{ "type": "Feature", "properties": { "osm_id": "11473175962", "code": 5621, "fclass": "bus_stop", "name": null }, "geometry": { "type": "Point", "coordinates": [ 79.9725668, 8.062172 ] } },
{ "type": "Feature", "properties": { "osm_id": "11473175963", "code": 5621, "fclass": "bus_stop", "name": null }, "geometry": { "type": "Point", "coordinates": [ 79.9122644, 8.0418746 ] } },
{ "type": "Feature", "properties": { "osm_id": "11473175966", "code": 5621, "fclass": "bus_stop", "name": null }, "geometry": { "type": "Point", "coordinates": [ 79.7403147, 8.211357 ] } },
{ "type": "Feature", "properties": { "osm_id": "11473277717", "code": 5621, "fclass": "bus_stop", "name": null }, "geometry": { "type": "Point", "coordinates": [ 79.7336484, 8.0624671 ] } },
{ "type": "Feature", "properties": { "osm_id": "11473277718", "code": 5621, "fclass": "bus_stop", "name": null }, "geometry": { "type": "Point", "coordinates": [ 79.7380485, 8.1617517 ] } },
{ "type": "Feature", "properties": { "osm_id": "11473277719", "code": 5621, "fclass": "bus_stop", "name": null }, "geometry": { "type": "Point", "coordinates": [ 79.7270448, 8.1238358 ] } },
{ "type": "Feature", "properties": { "osm_id": "11473277720", "code": 5621, "fclass": "bus_stop", "name": null }, "geometry": { "type": "Point", "coordinates": [ 79.7360473, 8.0144859 ] } },
{ "type": "Feature", "properties": { "osm_id": "11473284904", "code": 5621, "fclass": "bus_stop", "name": null }, "geometry": { "type": "Point", "coordinates": [ 79.7363973, 8.0532907 ] } },
{ "type": "Feature", "properties": { "osm_id": "11473285887", "code": 5621, "fclass": "bus_stop", "name": null }, "geometry": { "type": "Point", "coordinates": [ 80.1071, 8.20933 ] } },
{ "type": "Feature", "properties": { "osm_id": "11473285888", "code": 5621, "fclass": "bus_stop", "name": null }, "geometry": { "type": "Point", "coordinates": [ 80.0770831, 8.1712487 ] } },
{ "type": "Feature", "properties": { "osm_id": "11473285889", "code": 5621, "fclass": "bus_stop", "name": null }, "geometry": { "type": "Point", "coordinates": [ 79.9443531, 8.0516822 ] } },
{ "type": "Feature", "properties": { "osm_id": "11473285890", "code": 5621, "fclass": "bus_stop", "name": null }, "geometry": { "type": "Point", "coordinates": [ 79.7317698, 8.0971186 ] } },
{ "type": "Feature", "properties": { "osm_id": "11473285891", "code": 5621, "fclass": "bus_stop", "name": null }, "geometry": { "type": "Point", "coordinates": [ 79.7559591, 7.9809229 ] } },
{ "type": "Feature", "properties": { "osm_id": "11473285892", "code": 5621, "fclass": "bus_stop", "name": null },